{
  "{\"lat\":40.71939626548998,\"lng\":-74.0000378494813}": {
    "address": "M Crow, 16 Howard St, New York, NY 10013, United States",
    "AddressNumber": "16",
    "Country": "USA",
    "Geometry": { "Point": [-74.00003, 40.71943] },
    "Interpolated": false,
    "Municipality": "New York",
    "Neighborhood": "Chinatown",
    "PostalCode": "10013",
    "Region": "New York",
    "Street": "Howard St",
    "SubRegion": "New York",
    "TimeZone": { "Name": "America/New_York", "Offset": -18000 }
  },
  "{\"lat\":40.72174522386634,\"lng\":-73.99565525397365}": {
    "address": "33 Spring St, New York, NY 10012-4106, United States",
    "AddressNumber": "33",
    "Country": "USA",
    "Geometry": { "Point": [-73.99565, 40.72179] },
    "Interpolated": false,
    "Municipality": "New York",
    "Neighborhood": "Nolita",
    "PostalCode": "10012-4106",
    "Region": "New York",
    "Street": "Spring St",
    "SubRegion": "New York",
    "TimeZone": { "Name": "America/New_York", "Offset": -18000 }
  },
  "{\"lat\":40.72594662602202,\"lng\":-74.00115372780846}": {
    "address": "157 Prince St, New York, NY 10012-3107, United States",
    "AddressNumber": "157",
    "Country": "USA",
    "Geometry": { "Point": [-74.00111, 40.72603] },
    "Interpolated": false,
    "Municipality": "New York",
    "Neighborhood": "Soho",
    "PostalCode": "10012-3107",
    "Region": "New York",
    "Street": "Prince St",
    "SubRegion": "New York",
    "TimeZone": { "Name": "America/New_York", "Offset": -18000 }
  },
  "{\"lat\":40.720975934014184,\"lng\":-73.99759954015941}": {
    "address": "406 Broome St, New York, NY 10013-3269, United States",
    "AddressNumber": "406",
    "Country": "USA",
    "Geometry": { "Point": [-73.99783, 40.72104] },
    "Interpolated": false,
    "Municipality": "New York",
    "Neighborhood": "Soho",
    "PostalCode": "10013-3269",
    "Region": "New York",
    "Street": "Broome St",
    "SubRegion": "New York",
    "TimeZone": { "Name": "America/New_York", "Offset": -18000 }
  },
  "{\"lat\":40.72978710778243,\"lng\":-73.99492645889126}": {
    "address": "15 Washington Pl, New York, NY 10003-6631, United States",
    "AddressNumber": "15",
    "Country": "USA",
    "Geometry": { "Point": [-73.99476, 40.72979] },
    "Interpolated": false,
    "Municipality": "New York",
    "Neighborhood": "Greenwich Village",
    "PostalCode": "10003-6631",
    "Region": "New York",
    "Street": "Washington Pl",
    "SubRegion": "New York",
    "TimeZone": { "Name": "America/New_York", "Offset": -18000 }
  },
  "{\"lat\":40.72815707503304,\"lng\":-74.00226468940252}": {
    "address": "179 W Houston St, New York, NY 10014, United States",
    "AddressNumber": "179",
    "Country": "USA",
    "Geometry": { "Point": [-74.00227, 40.72794] },
    "Interpolated": false,
    "Municipality": "New York",
    "Neighborhood": "Soho",
    "PostalCode": "10014",
    "Region": "New York",
    "Street": "W Houston St",
    "SubRegion": "New York",
    "TimeZone": { "Name": "America/New_York", "Offset": -18000 }
  },
  "{\"lat\":40.72658398165521,\"lng\":-73.99863256925585}": {
    "address": "Ronen Economics, 110 Bleecker St, New York, NY 10012, United States",
    "AddressNumber": "110",
    "Country": "USA",
    "Geometry": { "Point": [-73.9986, 40.72672] },
    "Interpolated": false,
    "Municipality": "New York",
    "Neighborhood": "Greenwich Village",
    "PostalCode": "10012",
    "Region": "New York",
    "Street": "Bleecker St",
    "SubRegion": "New York",
    "TimeZone": { "Name": "America/New_York", "Offset": -18000 }
  },
  "{\"lat\":40.718074301286734,\"lng\":-73.99708666465821}": {
    "address": "123 Mott St, New York, NY 10013-4710, United States",
    "AddressNumber": "123",
    "Country": "USA",
    "Geometry": { "Point": [-73.99707, 40.71812] },
    "Interpolated": false,
    "Municipality": "New York",
    "Neighborhood": "Little Italy",
    "PostalCode": "10013-4710",
    "Region": "New York",
    "Street": "Mott St",
    "SubRegion": "New York",
    "TimeZone": { "Name": "America/New_York", "Offset": -18000 }
  },
  "{\"lat\":40.717834841817044,\"lng\":-73.9906119347361}": {
    "address": "81 Orchard St, New York, NY 10002-4520, United States",
    "AddressNumber": "81",
    "Country": "USA",
    "Geometry": { "Point": [-73.99051, 40.71781] },
    "Interpolated": false,
    "Municipality": "New York",
    "Neighborhood": "Lower East Side",
    "PostalCode": "10002-4520",
    "Region": "New York",
    "Street": "Orchard St",
    "SubRegion": "New York",
    "TimeZone": { "Name": "America/New_York", "Offset": -18000 }
  },
  "{\"lat\":40.7183909308716,\"lng\":-74.00200421338087}": {
    "address": "72 Walker St, New York, NY 10013-3520, United States",
    "AddressNumber": "72",
    "Country": "USA",
    "Geometry": { "Point": [-74.00193, 40.71845] },
    "Interpolated": false,
    "Municipality": "New York",
    "Neighborhood": "Chinatown",
    "PostalCode": "10013-3520",
    "Region": "New York",
    "Street": "Walker St",
    "SubRegion": "New York",
    "TimeZone": { "Name": "America/New_York", "Offset": -18000 }
  },
  "{\"lat\":40.729637557672625,\"lng\":-74.00174696911174}": {
    "address": "1 Minetta St, New York, NY 10012-1204, United States",
    "AddressNumber": "1",
    "Country": "USA",
    "Geometry": { "Point": [-74.00177, 40.72966] },
    "Interpolated": false,
    "Municipality": "New York",
    "Neighborhood": "Greenwich Village",
    "PostalCode": "10012-1204",
    "Region": "New York",
    "Street": "Minetta St",
    "SubRegion": "New York",
    "TimeZone": { "Name": "America/New_York", "Offset": -18000 }
  },
  "{\"lat\":40.73251911955895,\"lng\":-73.99564366674626}": {
    "address": "9 5th Ave, New York, NY 10017-2496, United States",
    "AddressNumber": "9",
    "Country": "USA",
    "Geometry": { "Point": [-73.99566, 40.73235] },
    "Interpolated": false,
    "Municipality": "New York",
    "Neighborhood": "Greenwich Village",
    "PostalCode": "10017-2496",
    "Region": "New York",
    "Street": "5th Ave",
    "SubRegion": "New York",
    "TimeZone": { "Name": "America/New_York", "Offset": -18000 }
  },
  "{\"lat\":40.728740584827165,\"lng\":-73.99968201180806}": {
    "address": "203 Thompson St, New York, NY 10012-1304, United States",
    "AddressNumber": "203",
    "Country": "USA",
    "Geometry": { "Point": [-73.99956, 40.72871] },
    "Interpolated": false,
    "Municipality": "New York",
    "Neighborhood": "Greenwich Village",
    "PostalCode": "10012-1304",
    "Region": "New York",
    "Street": "Thompson St",
    "SubRegion": "New York",
    "TimeZone": { "Name": "America/New_York", "Offset": -18000 }
  },
  "{\"lat\":40.73270090193275,\"lng\":-73.9933307860715}": {
    "address": "23 E 10th St, New York, NY 10003-6113, United States",
    "AddressNumber": "23",
    "Country": "USA",
    "Geometry": { "Point": [-73.99345, 40.73269] },
    "Interpolated": false,
    "Municipality": "New York",
    "Neighborhood": "Greenwich Village",
    "PostalCode": "10003-6113",
    "Region": "New York",
    "Street": "E 10th St",
    "SubRegion": "New York",
    "TimeZone": { "Name": "America/New_York", "Offset": -18000 }
  },
  "{\"lat\":40.72117878432256,\"lng\":-74.00093938247207}": {
    "address": "110 Grand St, New York, NY 10013, United States",
    "AddressNumber": "110",
    "Country": "USA",
    "Geometry": { "Point": [-74.00099, 40.72114] },
    "Interpolated": false,
    "Municipality": "New York",
    "Neighborhood": "Soho",
    "PostalCode": "10013",
    "Region": "New York",
    "Street": "Grand St",
    "SubRegion": "New York",
    "TimeZone": { "Name": "America/New_York", "Offset": -18000 }
  },
  "{\"lat\":40.72230391811479,\"lng\":-73.9977301807193}": {
    "address": "70 Spring St, New York, NY 10012, United States",
    "AddressNumber": "70",
    "Country": "USA",
    "Geometry": { "Point": [-73.99761, 40.72241] },
    "Interpolated": false,
    "Municipality": "New York",
    "Neighborhood": "Soho",
    "PostalCode": "10012",
    "Region": "New York",
    "Street": "Spring St",
    "SubRegion": "New York",
    "TimeZone": { "Name": "America/New_York", "Offset": -18000 }
  },
  "{\"lat\":40.72697024184477,\"lng\":-73.98996573024473}": {
    "address": "230 E 5th St, New York, NY 10003-8501, United States",
    "AddressNumber": "230",
    "Country": "USA",
    "Geometry": { "Point": [-73.98995, 40.72708] },
    "Interpolated": false,
    "Municipality": "New York",
    "Neighborhood": "East Village",
    "PostalCode": "10003-8501",
    "Region": "New York",
    "Street": "E 5th St",
    "SubRegion": "New York",
    "TimeZone": { "Name": "America/New_York", "Offset": -18000 }
  },
  "{\"lat\":40.73217257588506,\"lng\":-73.9991633137711}": {
    "address": "106 Waverly Pl, New York, NY 10011-9109, United States",
    "AddressNumber": "106",
    "Country": "USA",
    "Geometry": { "Point": [-73.99905, 40.73232] },
    "Interpolated": false,
    "Municipality": "New York",
    "Neighborhood": "Greenwich Village",
    "PostalCode": "10011-9109",
    "Region": "New York",
    "Street": "Waverly Pl",
    "SubRegion": "New York",
    "TimeZone": { "Name": "America/New_York", "Offset": -18000 }
  },
  "{\"lat\":40.724106375182075,\"lng\":-73.99002890135607}": {
    "address": "38 E 1st St, New York, NY 10003-9345, United States",
    "AddressNumber": "38",
    "Country": "USA",
    "Geometry": { "Point": [-73.99005, 40.72406] },
    "Interpolated": false,
    "Municipality": "New York",
    "Neighborhood": "East Village",
    "PostalCode": "10003-9345",
    "Region": "New York",
    "Street": "E 1st St",
    "SubRegion": "New York",
    "TimeZone": { "Name": "America/New_York", "Offset": -18000 }
  },
  "{\"lat\":40.7263605673416,\"lng\":-74.00481903418331}": {
    "address": "25 Vandam St, New York, NY 10013, United States",
    "AddressNumber": "25",
    "Country": "USA",
    "Geometry": { "Point": [-74.0048, 40.72646] },
    "Interpolated": false,
    "Municipality": "New York",
    "Neighborhood": "Soho",
    "PostalCode": "10013",
    "Region": "New York",
    "Street": "Vandam St",
    "SubRegion": "New York",
    "TimeZone": { "Name": "America/New_York", "Offset": -18000 }
  },
  "{\"lat\":40.72268566226542,\"lng\":-74.00124104766103}": {
    "address": "56 Greene St, New York, NY 10012-4301, United States",
    "AddressNumber": "56",
    "Country": "USA",
    "Geometry": { "Point": [-74.00117, 40.72271] },
    "Interpolated": false,
    "Municipality": "New York",
    "Neighborhood": "Soho",
    "PostalCode": "10012-4301",
    "Region": "New York",
    "Street": "Greene St",
    "SubRegion": "New York",
    "TimeZone": { "Name": "America/New_York", "Offset": -18000 }
  },
  "{\"lat\":40.723509978002205,\"lng\":-73.9910576156674}": {
    "address": "119 E Houston St, New York, NY 10002-1010, United States",
    "AddressNumber": "119",
    "Country": "USA",
    "Geometry": { "Point": [-73.99111, 40.72345] },
    "Interpolated": true,
    "Municipality": "New York",
    "Neighborhood": "Lower East Side",
    "PostalCode": "10002-1010",
    "Region": "New York",
    "Street": "E Houston St",
    "SubRegion": "New York",
    "TimeZone": { "Name": "America/New_York", "Offset": -18000 }
  },
  "{\"lat\":40.728100833342545,\"lng\":-73.99364261703377}": {
    "address": "11 E 4th St, New York, NY 10003-6902, United States",
    "AddressNumber": "11",
    "Country": "USA",
    "Geometry": { "Point": [-73.99353, 40.72816] },
    "Interpolated": false,
    "Municipality": "New York",
    "Neighborhood": "Noho",
    "PostalCode": "10003-6902",
    "Region": "New York",
    "Street": "E 4th St",
    "SubRegion": "New York",
    "TimeZone": { "Name": "America/New_York", "Offset": -18000 }
  },
  "{\"lat\":40.72345760717769,\"lng\":-73.99874596018971}": {
    "address": "541 Broadway, New York, NY 10012-3900, United States",
    "AddressNumber": "541",
    "Country": "USA",
    "Geometry": { "Point": [-73.99863, 40.72345] },
    "Interpolated": false,
    "Municipality": "New York",
    "Neighborhood": "Soho",
    "PostalCode": "10012-3900",
    "Region": "New York",
    "Street": "Broadway",
    "SubRegion": "New York",
    "TimeZone": { "Name": "America/New_York", "Offset": -18000 }
  },
  "{\"lat\":40.71996910123659,\"lng\":-73.98985093986583}": {
    "address": "134 Allen St, New York, NY 10002-3004, United States",
    "AddressNumber": "134",
    "Country": "USA",
    "Geometry": { "Point": [-73.98972, 40.71993] },
    "Interpolated": false,
    "Municipality": "New York",
    "Neighborhood": "Lower East Side",
    "PostalCode": "10002-3004",
    "Region": "New York",
    "Street": "Allen St",
    "SubRegion": "New York",
    "TimeZone": { "Name": "America/New_York", "Offset": -18000 }
  },
  "{\"lat\":40.729190343358695,\"lng\":-73.99584403472338}": {
    "address": "31 W 4th St, New York, NY 10012-1119, United States",
    "AddressNumber": "31",
    "Country": "USA",
    "Geometry": { "Point": [-73.99563, 40.72921] },
    "Interpolated": false,
    "Municipality": "New York",
    "Neighborhood": "Greenwich Village",
    "PostalCode": "10012-1119",
    "Region": "New York",
    "Street": "W 4th St",
    "SubRegion": "New York",
    "TimeZone": { "Name": "America/New_York", "Offset": -18000 }
  },
  "{\"lat\":40.72282834170115,\"lng\":-73.98985478633914}": {
    "address": "247 Eldridge St, New York, NY 10002-1349, United States",
    "AddressNumber": "247",
    "Country": "USA",
    "Geometry": { "Point": [-73.98976, 40.72282] },
    "Interpolated": false,
    "Municipality": "New York",
    "Neighborhood": "Lower East Side",
    "PostalCode": "10002-1349",
    "Region": "New York",
    "Street": "Eldridge St",
    "SubRegion": "New York",
    "TimeZone": { "Name": "America/New_York", "Offset": -18000 }
  },
  "{\"lat\":40.726283271605965,\"lng\":-73.99171027438454}": {
    "address": "344 Bowery, New York, NY 10012-2414, United States",
    "AddressNumber": "344",
    "Country": "USA",
    "Geometry": { "Point": [-73.99207, 40.72626] },
    "Interpolated": false,
    "Municipality": "New York",
    "Neighborhood": "Noho",
    "PostalCode": "10012-2414",
    "Region": "New York",
    "Street": "Bowery",
    "SubRegion": "New York",
    "TimeZone": { "Name": "America/New_York", "Offset": -18000 }
  },
  "{\"lat\":40.727455420017826,\"lng\":-73.9929987784386}": {
    "address": "381 Lafayette St, New York, NY 10003-7051, United States",
    "AddressNumber": "381",
    "Country": "USA",
    "Geometry": { "Point": [-73.99322, 40.7275] },
    "Interpolated": false,
    "Municipality": "New York",
    "Neighborhood": "Noho",
    "PostalCode": "10003-7051",
    "Region": "New York",
    "Street": "Lafayette St",
    "SubRegion": "New York",
    "TimeZone": { "Name": "America/New_York", "Offset": -18000 }
  },
  "{\"lat\":40.72767919528258,\"lng\":-73.98949728788256}": {
    "address": "226 E 6th St, New York, NY 10003-8201, United States",
    "AddressNumber": "226",
    "Country": "USA",
    "Geometry": { "Point": [-73.98952, 40.72771] },
    "Interpolated": false,
    "Municipality": "New York",
    "Neighborhood": "East Village",
    "PostalCode": "10003-8201",
    "Region": "New York",
    "Street": "E 6th St",
    "SubRegion": "New York",
    "TimeZone": { "Name": "America/New_York", "Offset": -18000 }
  },
  "{\"lat\":40.72552627427399,\"lng\":-74.00035144266565}": {
    "address": "131 Prince St, New York, NY 10012-0107, United States",
    "AddressNumber": "131",
    "Country": "USA",
    "Geometry": { "Point": [-74.00034, 40.7256] },
    "Interpolated": false,
    "Municipality": "New York",
    "Neighborhood": "Soho",
    "PostalCode": "10012-0107",
    "Region": "New York",
    "Street": "Prince St",
    "SubRegion": "New York",
    "TimeZone": { "Name": "America/New_York", "Offset": -18000 }
  },
  "{\"lat\":40.72661340720665,\"lng\":-73.99415762200032}": {
    "address": "359 Lafayette St, New York, NY 10012-2415, United States",
    "AddressNumber": "359",
    "Country": "USA",
    "Geometry": { "Point": [-73.99403, 40.72657] },
    "Interpolated": false,
    "Municipality": "New York",
    "Neighborhood": "Noho",
    "PostalCode": "10012-2415",
    "Region": "New York",
    "Street": "Lafayette St",
    "SubRegion": "New York",
    "TimeZone": { "Name": "America/New_York", "Offset": -18000 }
  },
  "{\"lat\":40.72441408433001,\"lng\":-74.0036825047335}": {
    "address": "71 Sullivan St, New York, NY 10012-4306, United States",
    "AddressNumber": "71",
    "Country": "USA",
    "Geometry": { "Point": [-74.0039, 40.72447] },
    "Interpolated": false,
    "Municipality": "New York",
    "Neighborhood": "Soho",
    "PostalCode": "10012-4306",
    "Region": "New York",
    "Street": "Sullivan St",
    "SubRegion": "New York",
    "TimeZone": { "Name": "America/New_York", "Offset": -18000 }
  },
  "{\"lat\":40.725757301028054,\"lng\":-74.00261649466049}": {
    "address": "107 Sullivan St, New York, NY 10012-3606, United States",
    "AddressNumber": "107",
    "Country": "USA",
    "Geometry": { "Point": [-74.0028, 40.72582] },
    "Interpolated": false,
    "Municipality": "New York",
    "Neighborhood": "Soho",
    "PostalCode": "10012-3606",
    "Region": "New York",
    "Street": "Sullivan St",
    "SubRegion": "New York",
    "TimeZone": { "Name": "America/New_York", "Offset": -18000 }
  },
  "{\"lat\":40.72786096667362,\"lng\":-73.9914971969367}": {
    "address": "20 Cooper Sq, New York, NY 10003-7112, United States",
    "AddressNumber": "20",
    "Country": "USA",
    "Geometry": { "Point": [-73.99154, 40.72784] },
    "Interpolated": false,
    "Municipality": "New York",
    "Neighborhood": "Noho",
    "PostalCode": "10003-7112",
    "Region": "New York",
    "Street": "Cooper Sq",
    "SubRegion": "New York",
    "TimeZone": { "Name": "America/New_York", "Offset": -18000 }
  },
  "{\"lat\":40.721598396911105,\"lng\":-73.98988443661239}": {
    "address": "196 Eldridge St, New York, NY 10002-1306, United States",
    "AddressNumber": "196",
    "Country": "USA",
    "Geometry": { "Point": [-73.9899, 40.72158] },
    "Interpolated": false,
    "Municipality": "New York",
    "Neighborhood": "Lower East Side",
    "PostalCode": "10002-1306",
    "Region": "New York",
    "Street": "Eldridge St",
    "SubRegion": "New York",
    "TimeZone": { "Name": "America/New_York", "Offset": -18000 }
  },
  "{\"lat\":40.71822758589196,\"lng\":-73.99616936161051}": {
    "address": "87-89 Elizabeth St, New York, NY 10013-4729, United States",
    "AddressNumber": "87-89",
    "Country": "USA",
    "Geometry": { "Point": [-73.99618, 40.7183] },
    "Interpolated": false,
    "Municipality": "New York",
    "Neighborhood": "Chinatown",
    "PostalCode": "10013-4729",
    "Region": "New York",
    "Street": "Elizabeth St",
    "SubRegion": "New York",
    "TimeZone": { "Name": "America/New_York", "Offset": -18000 }
  },
  "{\"lat\":40.729930629030335,\"lng\":-73.99830505139182}": {
    "address": "Easy French Conversation, Thompson St, New York, NY 10012, United States",
    "Country": "USA",
    "Geometry": { "Point": [-73.99819, 40.72992] },
    "Interpolated": false,
    "Municipality": "New York",
    "Neighborhood": "Greenwich Village",
    "PostalCode": "10012",
    "Region": "New York",
    "Street": "Thompson St",
    "SubRegion": "New York",
    "TimeZone": { "Name": "America/New_York", "Offset": -18000 }
  },
  "{\"lat\":40.729947180884395,\"lng\":-73.99233764832401}": {
    "address": "4 Astor Pl, New York, NY 10003-6903, United States",
    "AddressNumber": "4",
    "Country": "USA",
    "Geometry": { "Point": [-73.99241, 40.72988] },
    "Interpolated": false,
    "Municipality": "New York",
    "Neighborhood": "Noho",
    "PostalCode": "10003-6903",
    "Region": "New York",
    "Street": "Astor Pl",
    "SubRegion": "New York",
    "TimeZone": { "Name": "America/New_York", "Offset": -18000 }
  },
  "{\"lat\":40.720675598764146,\"lng\":-73.9928098978422}": {
    "address": "163 Chrystie St, New York, NY 10002-2807, United States",
    "AddressNumber": "163",
    "Country": "USA",
    "Geometry": { "Point": [-73.99275, 40.72063] },
    "Interpolated": false,
    "Municipality": "New York",
    "Neighborhood": "Lower East Side",
    "PostalCode": "10002-2807",
    "Region": "New York",
    "Street": "Chrystie St",
    "SubRegion": "New York",
    "TimeZone": { "Name": "America/New_York", "Offset": -18000 }
  },
  "{\"lat\":40.72603744514773,\"lng\":-74.00168964207086}": {
    "address": "115 Thompson St, New York, NY 10012-3714, United States",
    "AddressNumber": "115",
    "Country": "USA",
    "Geometry": { "Point": [-74.00178, 40.72605] },
    "Interpolated": false,
    "Municipality": "New York",
    "Neighborhood": "Soho",
    "PostalCode": "10012-3714",
    "Region": "New York",
    "Street": "Thompson St",
    "SubRegion": "New York",
    "TimeZone": { "Name": "America/New_York", "Offset": -18000 }
  },
  "{\"lat\":40.72645763334378,\"lng\":-73.98864370478708}": {
    "address": "302 E 5th St, New York, NY 10003-8801, United States",
    "AddressNumber": "302",
    "Country": "USA",
    "Geometry": { "Point": [-73.98858, 40.72637] },
    "Interpolated": false,
    "Municipality": "New York",
    "Neighborhood": "East Village",
    "PostalCode": "10003-8801",
    "Region": "New York",
    "Street": "E 5th St",
    "SubRegion": "New York",
    "TimeZone": { "Name": "America/New_York", "Offset": -18000 }
  },
  "{\"lat\":40.72983210263203,\"lng\":-73.99761473569669}": {
    "address": "566 Laguardia Pl, New York, NY 10012-1011, United States",
    "AddressNumber": "566",
    "Country": "USA",
    "Geometry": { "Point": [-73.99778, 40.72969] },
    "Interpolated": false,
    "Municipality": "New York",
    "Neighborhood": "Greenwich Village",
    "PostalCode": "10012-1011",
    "Region": "New York",
    "Street": "Laguardia Pl",
    "SubRegion": "New York",
    "TimeZone": { "Name": "America/New_York", "Offset": -18000 }
  },
  "{\"lat\":40.72768788448983,\"lng\":-73.99508877519702}": {
    "address": "Main Line Affair, 671 Broadway, New York, NY 10012, United States",
    "AddressNumber": "671",
    "Country": "USA",
    "Geometry": { "Point": [-73.99515, 40.72756] },
    "Interpolated": false,
    "Municipality": "New York",
    "Neighborhood": "Greenwich Village",
    "PostalCode": "10012",
    "Region": "New York",
    "Street": "Broadway",
    "SubRegion": "New York",
    "TimeZone": { "Name": "America/New_York", "Offset": -18000 }
  },
  "{\"lat\":40.72068758366428,\"lng\":-73.99655167286751}": {
    "address": "178 Mulberry St, New York, NY 10012-4504, United States",
    "AddressNumber": "178",
    "Country": "USA",
    "Geometry": { "Point": [-73.99666, 40.72066] },
    "Interpolated": false,
    "Municipality": "New York",
    "Neighborhood": "Little Italy",
    "PostalCode": "10012-4504",
    "Region": "New York",
    "Street": "Mulberry St",
    "SubRegion": "New York",
    "TimeZone": { "Name": "America/New_York", "Offset": -18000 }
  },
  "{\"lat\":40.73047765783463,\"lng\":-74.00134053584725}": {
    "address": "24 Minetta Ln, New York, NY 10012-1207, United States",
    "AddressNumber": "24",
    "Country": "USA",
    "Geometry": { "Point": [-74.0013, 40.73045] },
    "Interpolated": false,
    "Municipality": "New York",
    "Neighborhood": "Greenwich Village",
    "PostalCode": "10012-1207",
    "Region": "New York",
    "Street": "Minetta Ln",
    "SubRegion": "New York",
    "TimeZone": { "Name": "America/New_York", "Offset": -18000 }
  },
  "{\"lat\":40.72365299395383,\"lng\":-73.99816665821635}": {
    "address": "550 Broadway, New York, NY 10012-3912, United States",
    "AddressNumber": "550",
    "Country": "USA",
    "Geometry": { "Point": [-73.99811, 40.7236] },
    "Interpolated": false,
    "Municipality": "New York",
    "Neighborhood": "Soho",
    "PostalCode": "10012-3912",
    "Region": "New York",
    "Street": "Broadway",
    "SubRegion": "New York",
    "TimeZone": { "Name": "America/New_York", "Offset": -18000 }
  },
  "{\"lat\":40.73170862785488,\"lng\":-73.99104699280669}": {
    "address": "63 E 10th St, New York, NY 10003-5104, United States",
    "AddressNumber": "63",
    "Country": "USA",
    "Geometry": { "Point": [-73.99106, 40.73172] },
    "Interpolated": true,
    "Municipality": "New York",
    "Neighborhood": "Greenwich Village",
    "PostalCode": "10003-5104",
    "Region": "New York",
    "Street": "E 10th St",
    "SubRegion": "New York",
    "TimeZone": { "Name": "America/New_York", "Offset": -18000 }
  },
  "{\"lat\":40.71745848843918,\"lng\":-73.99100570783683}": {
    "address": "72 Allen St, New York, NY 10002-3014, United States",
    "AddressNumber": "72",
    "Country": "USA",
    "Geometry": { "Point": [-73.99097, 40.7175] },
    "Interpolated": false,
    "Municipality": "New York",
    "Neighborhood": "Lower East Side",
    "PostalCode": "10002-3014",
    "Region": "New York",
    "Street": "Allen St",
    "SubRegion": "New York",
    "TimeZone": { "Name": "America/New_York", "Offset": -18000 }
  },
  "{\"lat\":40.731166393495926,\"lng\":-74.00002143059581}": {
    "address": "132 W 4th St, New York, NY 10012-1009, United States",
    "AddressNumber": "132",
    "Country": "USA",
    "Geometry": { "Point": [-74.00004, 40.73115] },
    "Interpolated": false,
    "Municipality": "New York",
    "Neighborhood": "Greenwich Village",
    "PostalCode": "10012-1009",
    "Region": "New York",
    "Street": "W 4th St",
    "SubRegion": "New York",
    "TimeZone": { "Name": "America/New_York", "Offset": -18000 }
  },
  "{\"lat\":40.72409860307388,\"lng\":-74.00052630245264}": {
    "address": "131 Spring St, New York, NY 10012-3802, United States",
    "AddressNumber": "131",
    "Country": "USA",
    "Geometry": { "Point": [-74.00051, 40.7241] },
    "Interpolated": false,
    "Municipality": "New York",
    "Neighborhood": "Soho",
    "PostalCode": "10012-3802",
    "Region": "New York",
    "Street": "Spring St",
    "SubRegion": "New York",
    "TimeZone": { "Name": "America/New_York", "Offset": -18000 }
  },
  "{\"lat\":40.717132811033515,\"lng\":-73.993673679672}": {
    "address": "70 Forsyth St, New York, NY 10002-5101, United States",
    "AddressNumber": "70",
    "Country": "USA",
    "Geometry": { "Point": [-73.99338, 40.71704] },
    "Interpolated": false,
    "Municipality": "New York",
    "Neighborhood": "Chinatown",
    "PostalCode": "10002-5101",
    "Region": "New York",
    "Street": "Forsyth St",
    "SubRegion": "New York",
    "TimeZone": { "Name": "America/New_York", "Offset": -18000 }
  },
  "{\"lat\":40.726944783427015,\"lng\":-73.9888636302134}": {
    "address": "88 2nd Ave, New York, NY 10003-8301, United States",
    "AddressNumber": "88",
    "Country": "USA",
    "Geometry": { "Point": [-73.98873, 40.72686] },
    "Interpolated": false,
    "Municipality": "New York",
    "Neighborhood": "East Village",
    "PostalCode": "10003-8301",
    "Region": "New York",
    "Street": "2nd Ave",
    "SubRegion": "New York",
    "TimeZone": { "Name": "America/New_York", "Offset": -18000 }
  },
  "{\"lat\":40.72184809840414,\"lng\":-74.00395810514023}": {
    "address": "323 W Broadway, New York, NY 10013-2226, United States",
    "AddressNumber": "323",
    "Country": "USA",
    "Geometry": { "Point": [-74.00382, 40.72186] },
    "Interpolated": false,
    "Municipality": "New York",
    "Neighborhood": "Soho",
    "PostalCode": "10013-2226",
    "Region": "New York",
    "Street": "W Broadway",
    "SubRegion": "New York",
    "TimeZone": { "Name": "America/New_York", "Offset": -18000 }
  },
  "{\"lat\":40.723735980188124,\"lng\":-73.98855691403138}": {
    "address": "21 1st Ave, New York, NY 10003-9403, United States",
    "AddressNumber": "21",
    "Country": "USA",
    "Geometry": { "Point": [-73.98839, 40.72367] },
    "Interpolated": false,
    "Municipality": "New York",
    "Neighborhood": "East Village",
    "PostalCode": "10003-9403",
    "Region": "New York",
    "Street": "1st Ave",
    "SubRegion": "New York",
    "TimeZone": { "Name": "America/New_York", "Offset": -18000 }
  },
  "{\"lat\":40.72881252775347,\"lng\":-73.99378584517552}": {
    "address": "710 Broadway, New York, NY 10003-9501, United States",
    "AddressNumber": "710",
    "Country": "USA",
    "Geometry": { "Point": [-73.99374, 40.72879] },
    "Interpolated": false,
    "Municipality": "New York",
    "Neighborhood": "Noho",
    "PostalCode": "10003-9501",
    "Region": "New York",
    "Street": "Broadway",
    "SubRegion": "New York",
    "TimeZone": { "Name": "America/New_York", "Offset": -18000 }
  },
  "{\"lat\":40.71832265049635,\"lng\":-73.99609685856827}": {
    "address": "89 Elizabeth St, New York, NY 10013-4729, United States",
    "AddressNumber": "89",
    "Country": "USA",
    "Geometry": { "Point": [-73.99603, 40.71829] },
    "Interpolated": false,
    "Municipality": "New York",
    "Neighborhood": "Chinatown",
    "PostalCode": "10013-4729",
    "Region": "New York",
    "Street": "Elizabeth St",
    "SubRegion": "New York",
    "TimeZone": { "Name": "America/New_York", "Offset": -18000 }
  },
  "{\"lat\":40.72897234718668,\"lng\":-74.00103185580329}": {
    "address": "182 Bleecker St, New York, NY 10012-1409, United States",
    "AddressNumber": "182",
    "Country": "USA",
    "Geometry": { "Point": [-74.00102, 40.72897] },
    "Interpolated": false,
    "Municipality": "New York",
    "Neighborhood": "Greenwich Village",
    "PostalCode": "10012-1409",
    "Region": "New York",
    "Street": "Bleecker St",
    "SubRegion": "New York",
    "TimeZone": { "Name": "America/New_York", "Offset": -18000 }
  },
  "{\"lat\":40.728066954855656,\"lng\":-73.99389196115321}": {
    "address": "14 E 4th St, New York, NY 10012-1131, United States",
    "AddressNumber": "14",
    "Country": "USA",
    "Geometry": { "Point": [-73.9938, 40.72807] },
    "Interpolated": false,
    "Municipality": "New York",
    "Neighborhood": "Noho",
    "PostalCode": "10012-1131",
    "Region": "New York",
    "Street": "E 4th St",
    "SubRegion": "New York",
    "TimeZone": { "Name": "America/New_York", "Offset": -18000 }
  },
  "{\"lat\":40.726853273131496,\"lng\":-74.00206563359045}": {
    "address": "138 Sullivan St, New York, NY 10012-3002, United States",
    "AddressNumber": "138",
    "Country": "USA",
    "Geometry": { "Point": [-74.00213, 40.72692] },
    "Interpolated": false,
    "Municipality": "New York",
    "Neighborhood": "Soho",
    "PostalCode": "10012-3002",
    "Region": "New York",
    "Street": "Sullivan St",
    "SubRegion": "New York",
    "TimeZone": { "Name": "America/New_York", "Offset": -18000 }
  },
  "{\"lat\":40.72589581468339,\"lng\":-73.99432180284582}": {
    "address": "49 Bleecker St, New York, NY 10012-0211, United States",
    "AddressNumber": "49",
    "Country": "USA",
    "Geometry": { "Point": [-73.99424, 40.72587] },
    "Interpolated": false,
    "Municipality": "New York",
    "Neighborhood": "Noho",
    "PostalCode": "10012-0211",
    "Region": "New York",
    "Street": "Bleecker St",
    "SubRegion": "New York",
    "TimeZone": { "Name": "America/New_York", "Offset": -18000 }
  },
  "{\"lat\":40.72124914737974,\"lng\":-74.00463787130914}": {
    "address": "Scrap Yard, 300 W Broadway, New York, NY 10013-2225, United States",
    "AddressNumber": "300",
    "Country": "USA",
    "Geometry": { "Point": [-74.00479, 40.72139] },
    "Interpolated": false,
    "Municipality": "New York",
    "Neighborhood": "Tribeca",
    "PostalCode": "10013-2225",
    "Region": "New York",
    "Street": "W Broadway",
    "SubRegion": "New York",
    "TimeZone": { "Name": "America/New_York", "Offset": -18000 }
  },
  "{\"lat\":40.729797056082994,\"lng\":-73.99470946634084}": {
    "address": "15 Washington Pl, New York, NY 10003-6631, United States",
    "AddressNumber": "15",
    "Country": "USA",
    "Geometry": { "Point": [-73.99476, 40.72979] },
    "Interpolated": false,
    "Municipality": "New York",
    "Neighborhood": "Greenwich Village",
    "PostalCode": "10003-6631",
    "Region": "New York",
    "Street": "Washington Pl",
    "SubRegion": "New York",
    "TimeZone": { "Name": "America/New_York", "Offset": -18000 }
  },
  "{\"lat\":40.717996040704755,\"lng\":-73.99148237312306}": {
    "address": "79 Allen St, New York, NY 10002-3015, United States",
    "AddressNumber": "79",
    "Country": "USA",
    "Geometry": { "Point": [-73.99131, 40.71795] },
    "Interpolated": false,
    "Municipality": "New York",
    "Neighborhood": "Lower East Side",
    "PostalCode": "10002-3015",
    "Region": "New York",
    "Street": "Allen St",
    "SubRegion": "New York",
    "TimeZone": { "Name": "America/New_York", "Offset": -18000 }
  },
  "{\"lat\":40.725828780430035,\"lng\":-73.99398060630703}": {
    "address": "41 Bleecker St, New York, NY 10012-2402, United States",
    "AddressNumber": "41",
    "Country": "USA",
    "Geometry": { "Point": [-73.99404, 40.72581] },
    "Interpolated": false,
    "Municipality": "New York",
    "Neighborhood": "Noho",
    "PostalCode": "10012-2402",
    "Region": "New York",
    "Street": "Bleecker St",
    "SubRegion": "New York",
    "TimeZone": { "Name": "America/New_York", "Offset": -18000 }
  },
  "{\"lat\":40.72158777643871,\"lng\":-74.00397274393332}": {
    "address": "309 W Broadway, New York, NY 10013-5325, United States",
    "AddressNumber": "309",
    "Country": "USA",
    "Geometry": { "Point": [-74.00419, 40.72167] },
    "Interpolated": false,
    "Municipality": "New York",
    "Neighborhood": "Soho",
    "PostalCode": "10013-5325",
    "Region": "New York",
    "Street": "W Broadway",
    "SubRegion": "New York",
    "TimeZone": { "Name": "America/New_York", "Offset": -18000 }
  },
  "{\"lat\":40.72698331267425,\"lng\":-73.99416667499713}": {
    "address": "358 Lafayette St, New York, NY 10012-2416, United States",
    "AddressNumber": "358",
    "Country": "USA",
    "Geometry": { "Point": [-73.99421, 40.72695] },
    "Interpolated": false,
    "Municipality": "New York",
    "Neighborhood": "Noho",
    "PostalCode": "10012-2416",
    "Region": "New York",
    "Street": "Lafayette St",
    "SubRegion": "New York",
    "TimeZone": { "Name": "America/New_York", "Offset": -18000 }
  },
  "{\"lat\":40.72430632723582,\"lng\":-73.9887483613431}": {
    "address": "78 E 2nd St, New York, NY 10003-9269, United States",
    "AddressNumber": "78",
    "Country": "USA",
    "Geometry": { "Point": [-73.98871, 40.72436] },
    "Interpolated": false,
    "Municipality": "New York",
    "Neighborhood": "East Village",
    "PostalCode": "10003-9269",
    "Region": "New York",
    "Street": "E 2nd St",
    "SubRegion": "New York",
    "TimeZone": { "Name": "America/New_York", "Offset": -18000 }
  },
  "{\"lat\":40.71872515235284,\"lng\":-73.99691757429888}": {
    "address": "141 Mott St, New York, NY 10013-4710, United States",
    "AddressNumber": "141",
    "Country": "USA",
    "Geometry": { "Point": [-73.99675, 40.71869] },
    "Interpolated": false,
    "Municipality": "New York",
    "Neighborhood": "Little Italy",
    "PostalCode": "10013-4710",
    "Region": "New York",
    "Street": "Mott St",
    "SubRegion": "New York",
    "TimeZone": { "Name": "America/New_York", "Offset": -18000 }
  },
  "{\"lat\":40.729376618575316,\"lng\":-73.99189123271633}": {
    "address": "440 Lafayette St, New York, NY 10003-6905, United States",
    "AddressNumber": "440",
    "Country": "USA",
    "Geometry": { "Point": [-73.99199, 40.7295] },
    "Interpolated": false,
    "Municipality": "New York",
    "Neighborhood": "Noho",
    "PostalCode": "10003-6905",
    "Region": "New York",
    "Street": "Lafayette St",
    "SubRegion": "New York",
    "TimeZone": { "Name": "America/New_York", "Offset": -18000 }
  },
  "{\"lat\":40.721659279215594,\"lng\":-74.00311396249175}": {
    "address": "24 Wooster St, New York, NY 10013, United States",
    "AddressNumber": "24",
    "Country": "USA",
    "Geometry": { "Point": [-74.00313, 40.72168] },
    "Interpolated": false,
    "Municipality": "New York",
    "Neighborhood": "Soho",
    "PostalCode": "10013",
    "Region": "New York",
    "Street": "Wooster St",
    "SubRegion": "New York",
    "TimeZone": { "Name": "America/New_York", "Offset": -18000 }
  },
  "{\"lat\":40.73132463071766,\"lng\":-73.99796722998794}": {
    "address": "Washington Sq N, New York, NY 10011, United States",
    "Country": "USA",
    "Geometry": { "Point": [-73.99763, 40.73173] },
    "Interpolated": false,
    "Municipality": "New York",
    "Neighborhood": "Greenwich Village",
    "PostalCode": "10011",
    "Region": "New York",
    "Street": "Washington Sq N",
    "SubRegion": "New York",
    "TimeZone": { "Name": "America/New_York", "Offset": -18000 }
  },
  "{\"lat\":40.723374056554164,\"lng\":-73.99715863663072}": {
    "address": "95 Crosby St, New York, NY 10012-3905, United States",
    "AddressNumber": "95",
    "Country": "USA",
    "Geometry": { "Point": [-73.9972, 40.72343] },
    "Interpolated": false,
    "Municipality": "New York",
    "Neighborhood": "Soho",
    "PostalCode": "10012-3905",
    "Region": "New York",
    "Street": "Crosby St",
    "SubRegion": "New York",
    "TimeZone": { "Name": "America/New_York", "Offset": -18000 }
  },
  "{\"lat\":40.72825741117714,\"lng\":-73.99897682938511}": {
    "address": "520 Laguardia Pl, New York, NY 10012-1401, United States",
    "AddressNumber": "520",
    "Country": "USA",
    "Geometry": { "Point": [-73.99896, 40.72832] },
    "Interpolated": false,
    "Municipality": "New York",
    "Neighborhood": "Greenwich Village",
    "PostalCode": "10012-1401",
    "Region": "New York",
    "Street": "Laguardia Pl",
    "SubRegion": "New York",
    "TimeZone": { "Name": "America/New_York", "Offset": -18000 }
  },
  "{\"lat\":40.7270389211371,\"lng\":-73.99615681757162}": {
    "address": "81 Bleecker St, New York, NY 10012-1598, United States",
    "AddressNumber": "81",
    "Country": "USA",
    "Geometry": { "Point": [-73.99629, 40.72698] },
    "Interpolated": false,
    "Municipality": "New York",
    "Neighborhood": "Greenwich Village",
    "PostalCode": "10012-1598",
    "Region": "New York",
    "Street": "Bleecker St",
    "SubRegion": "New York",
    "TimeZone": { "Name": "America/New_York", "Offset": -18000 }
  },
  "{\"lat\":40.72964635619794,\"lng\":-73.99068446699815}": {
    "address": "172 E 8th St, New York, NY 10003, United States",
    "AddressNumber": "172",
    "Country": "USA",
    "Geometry": { "Point": [-73.99064, 40.7297] },
    "Interpolated": true,
    "Municipality": "New York",
    "Neighborhood": "Noho",
    "PostalCode": "10003",
    "Region": "New York",
    "Street": "E 8th St",
    "SubRegion": "New York",
    "TimeZone": { "Name": "America/New_York", "Offset": -18000 }
  },
  "{\"lat\":40.72232510644351,\"lng\":-74.00260353589296}": {
    "address": "Drawing Center, 35 Wooster St, New York, NY 10013-2295, United States",
    "AddressNumber": "35",
    "Country": "USA",
    "Geometry": { "Point": [-74.00277, 40.72237] },
    "Interpolated": false,
    "Municipality": "New York",
    "Neighborhood": "Soho",
    "PostalCode": "10013-2295",
    "Region": "New York",
    "Street": "Wooster St",
    "SubRegion": "New York",
    "TimeZone": { "Name": "America/New_York", "Offset": -18000 }
  },
  "{\"lat\":40.71758484596292,\"lng\":-73.99804525366943}": {
    "address": "114 Mulberry St, New York, NY 10013-4604, United States",
    "AddressNumber": "114",
    "Country": "USA",
    "Geometry": { "Point": [-73.99798, 40.71756] },
    "Interpolated": false,
    "Municipality": "New York",
    "Neighborhood": "Little Italy",
    "PostalCode": "10013-4604",
    "Region": "New York",
    "Street": "Mulberry St",
    "SubRegion": "New York",
    "TimeZone": { "Name": "America/New_York", "Offset": -18000 }
  },
  "{\"lat\":40.729949558808805,\"lng\":-73.99280158999679}": {
    "address": "742 Broadway, New York, NY 10003-9502, United States",
    "AddressNumber": "742",
    "Country": "USA",
    "Geometry": { "Point": [-73.99282, 40.72992] },
    "Interpolated": false,
    "Municipality": "New York",
    "Neighborhood": "Noho",
    "PostalCode": "10003-9502",
    "Region": "New York",
    "Street": "Broadway",
    "SubRegion": "New York",
    "TimeZone": { "Name": "America/New_York", "Offset": -18000 }
  },
  "{\"lat\":40.7270423435508,\"lng\":-73.99062774094259}": {
    "address": "63 E 4th St, New York, NY 10003-8904, United States",
    "AddressNumber": "63",
    "Country": "USA",
    "Geometry": { "Point": [-73.99075, 40.72686] },
    "Interpolated": false,
    "Municipality": "New York",
    "Neighborhood": "East Village",
    "PostalCode": "10003-8904",
    "Region": "New York",
    "Street": "E 4th St",
    "SubRegion": "New York",
    "TimeZone": { "Name": "America/New_York", "Offset": -18000 }
  },
  "{\"lat\":40.72639449930221,\"lng\":-73.99765462125207}": {
    "address": "190 Mercer St, New York, NY 10012-1502, United States",
    "AddressNumber": "190",
    "Country": "USA",
    "Geometry": { "Point": [-73.99711, 40.72623] },
    "Interpolated": false,
    "Municipality": "New York",
    "Neighborhood": "Greenwich Village",
    "PostalCode": "10012-1502",
    "Region": "New York",
    "Street": "Mercer St",
    "SubRegion": "New York",
    "TimeZone": { "Name": "America/New_York", "Offset": -18000 }
  },
  "{\"lat\":40.73158670356181,\"lng\":-74.00117171276797}": {
    "address": "Fantasy Parties, W 4th St, New York, NY 10014, United States",
    "Country": "USA",
    "Geometry": { "Point": [-74.00112, 40.73162] },
    "Interpolated": false,
    "Municipality": "New York",
    "Neighborhood": "West Village",
    "PostalCode": "10014",
    "Region": "New York",
    "Street": "W 4th St",
    "SubRegion": "New York",
    "TimeZone": { "Name": "America/New_York", "Offset": -18000 }
  },
  "{\"lat\":40.72017043609274,\"lng\":-73.99878379587825}": {
    "address": "154 Grand St, New York, NY 10013-3118, United States",
    "AddressNumber": "154",
    "Country": "USA",
    "Geometry": { "Point": [-73.99881, 40.72006] },
    "Interpolated": false,
    "Municipality": "New York",
    "Neighborhood": "Chinatown",
    "PostalCode": "10013-3118",
    "Region": "New York",
    "Street": "Grand St",
    "SubRegion": "New York",
    "TimeZone": { "Name": "America/New_York", "Offset": -18000 }
  },
  "{\"lat\":40.73096117357881,\"lng\":-73.99731596333933}": {
    "address": "Elite Flowers by Solid Gold, Washington Sq N, New York, NY 10011, United States",
    "Country": "USA",
    "Geometry": { "Point": [-73.99687, 40.73152] },
    "Interpolated": false,
    "Municipality": "New York",
    "Neighborhood": "Greenwich Village",
    "PostalCode": "10011",
    "Region": "New York",
    "Street": "Washington Sq N",
    "SubRegion": "New York",
    "TimeZone": { "Name": "America/New_York", "Offset": -18000 }
  },
  "{\"lat\":40.72659824714863,\"lng\":-73.99686713205989}": {
    "address": "200 Mercer St, New York, NY 10012-1510, United States",
    "AddressNumber": "200",
    "Country": "USA",
    "Geometry": { "Point": [-73.99683, 40.72655] },
    "Interpolated": false,
    "Municipality": "New York",
    "Neighborhood": "Greenwich Village",
    "PostalCode": "10012-1510",
    "Region": "New York",
    "Street": "Mercer St",
    "SubRegion": "New York",
    "TimeZone": { "Name": "America/New_York", "Offset": -18000 }
  },
  "{\"lat\":40.7251255810641,\"lng\":-73.99483330361069}": {
    "address": "299 Mulberry St, New York, NY 10012-3329, United States",
    "AddressNumber": "299",
    "Country": "USA",
    "Geometry": { "Point": [-73.99496, 40.72522] },
    "Interpolated": false,
    "Municipality": "New York",
    "Neighborhood": "Noho",
    "PostalCode": "10012-3329",
    "Region": "New York",
    "Street": "Mulberry St",
    "SubRegion": "New York",
    "TimeZone": { "Name": "America/New_York", "Offset": -18000 }
  },
  "{\"lat\":40.719245290896616,\"lng\":-73.99780713678734}": {
    "address": "181 Grand St, New York, NY 10013-3734, United States",
    "AddressNumber": "181",
    "Country": "USA",
    "Geometry": { "Point": [-73.99773, 40.71935] },
    "Interpolated": false,
    "Municipality": "New York",
    "Neighborhood": "Little Italy",
    "PostalCode": "10013-3734",
    "Region": "New York",
    "Street": "Grand St",
    "SubRegion": "New York",
    "TimeZone": { "Name": "America/New_York", "Offset": -18000 }
  },
  "{\"lat\":40.731748961253835,\"lng\":-74.00035928508105}": {
    "address": "340 6th Ave, New York, NY 10011-8401, United States",
    "AddressNumber": "340",
    "Country": "USA",
    "Geometry": { "Point": [-74.00058, 40.73173] },
    "Interpolated": false,
    "Municipality": "New York",
    "Neighborhood": "Greenwich Village",
    "PostalCode": "10011-8401",
    "Region": "New York",
    "Street": "6th Ave",
    "SubRegion": "New York",
    "TimeZone": { "Name": "America/New_York", "Offset": -18000 }
  },
  "{\"lat\":40.72290551339101,\"lng\":-73.99338088914155}": {
    "address": "246 Bowery, New York, NY 10012-3501, United States",
    "AddressNumber": "246",
    "Country": "USA",
    "Geometry": { "Point": [-73.99344, 40.72289] },
    "Interpolated": false,
    "Municipality": "New York",
    "Neighborhood": "Nolita",
    "PostalCode": "10012-3501",
    "Region": "New York",
    "Street": "Bowery",
    "SubRegion": "New York",
    "TimeZone": { "Name": "America/New_York", "Offset": -18000 }
  },
  "{\"lat\":40.71917149045096,\"lng\":-74.00179633415023}": {
    "address": "416 Broadway, New York, NY 10013-3519, United States",
    "AddressNumber": "416",
    "Country": "USA",
    "Geometry": { "Point": [-74.00189, 40.71915] },
    "Interpolated": false,
    "Municipality": "New York",
    "Neighborhood": "Chinatown",
    "PostalCode": "10013-3519",
    "Region": "New York",
    "Street": "Broadway",
    "SubRegion": "New York",
    "TimeZone": { "Name": "America/New_York", "Offset": -18000 }
  },
  "{\"lat\":40.729386774677195,\"lng\":-73.99798301989506}": {
    "address": "64 W 3rd St, New York, NY 10012-1021, United States",
    "AddressNumber": "64",
    "Country": "USA",
    "Geometry": { "Point": [-73.99808, 40.72934] },
    "Interpolated": false,
    "Municipality": "New York",
    "Neighborhood": "Greenwich Village",
    "PostalCode": "10012-1021",
    "Region": "New York",
    "Street": "W 3rd St",
    "SubRegion": "New York",
    "TimeZone": { "Name": "America/New_York", "Offset": -18000 }
  },
  "{\"lat\":40.72728185917838,\"lng\":-73.98793173308228}": {
    "address": "305 E 6th St, New York, NY 10003-8401, United States",
    "AddressNumber": "305",
    "Country": "USA",
    "Geometry": { "Point": [-73.98795, 40.72727] },
    "Interpolated": false,
    "Municipality": "New York",
    "Neighborhood": "East Village",
    "PostalCode": "10003-8401",
    "Region": "New York",
    "Street": "E 6th St",
    "SubRegion": "New York",
    "TimeZone": { "Name": "America/New_York", "Offset": -18000 }
  },
  "{\"lat\":40.728478448982834,\"lng\":-73.99163232422234}": {
    "address": "46 Cooper Sq, New York, NY 10003-7119, United States",
    "AddressNumber": "46",
    "Country": "USA",
    "Geometry": { "Point": [-73.99147, 40.72863] },
    "Interpolated": false,
    "Municipality": "New York",
    "Neighborhood": "Noho",
    "PostalCode": "10003-7119",
    "Region": "New York",
    "Street": "Cooper Sq",
    "SubRegion": "New York",
    "TimeZone": { "Name": "America/New_York", "Offset": -18000 }
  },
  "{\"lat\":40.72023168866605,\"lng\":-73.99325664635039}": {
    "address": "12 Delancey St, New York, NY 10002-2804, United States",
    "AddressNumber": "12",
    "Country": "USA",
    "Geometry": { "Point": [-73.99322, 40.7203] },
    "Interpolated": false,
    "Municipality": "New York",
    "Neighborhood": "Lower East Side",
    "PostalCode": "10002-2804",
    "Region": "New York",
    "Street": "Delancey St",
    "SubRegion": "New York",
    "TimeZone": { "Name": "America/New_York", "Offset": -18000 }
  },
  "{\"lat\":40.716530882962985,\"lng\":-73.99967328534657}": {
    "address": "81 Baxter St, New York, NY 10013-4417, United States",
    "AddressNumber": "81",
    "Country": "USA",
    "Geometry": { "Point": [-73.9998, 40.71658] },
    "Interpolated": false,
    "Municipality": "New York",
    "Neighborhood": "Chinatown",
    "PostalCode": "10013-4417",
    "Region": "New York",
    "Street": "Baxter St",
    "SubRegion": "New York",
    "TimeZone": { "Name": "America/New_York", "Offset": -18000 }
  },
  "{\"lat\":40.721123499218955,\"lng\":-73.99082849181029}": {
    "address": "Eldridge St Building 201, Eldridge St, New York, NY 10002, United States",
    "Country": "USA",
    "Geometry": { "Point": [-73.99064, 40.72119] },
    "Interpolated": false,
    "Municipality": "New York",
    "Neighborhood": "Lower East Side",
    "PostalCode": "10002",
    "Region": "New York",
    "Street": "Eldridge St",
    "SubRegion": "New York",
    "TimeZone": { "Name": "America/New_York", "Offset": -18000 }
  },
  "{\"lat\":40.7233838596703,\"lng\":-74.00013788277423}": {
    "address": "91 Mercer St, New York, NY 10012-4402, United States",
    "AddressNumber": "91",
    "Country": "USA",
    "Geometry": { "Point": [-74.00007, 40.72323] },
    "Interpolated": false,
    "Municipality": "New York",
    "Neighborhood": "Soho",
    "PostalCode": "10012-4402",
    "Region": "New York",
    "Street": "Mercer St",
    "SubRegion": "New York",
    "TimeZone": { "Name": "America/New_York", "Offset": -18000 }
  },
  "{\"lat\":40.723942285433075,\"lng\":-74.00144008061993}": {
    "address": "83 Wooster St, New York, NY 10012-4304, United States",
    "AddressNumber": "83",
    "Country": "USA",
    "Geometry": { "Point": [-74.00146, 40.72392] },
    "Interpolated": false,
    "Municipality": "New York",
    "Neighborhood": "Soho",
    "PostalCode": "10012-4304",
    "Region": "New York",
    "Street": "Wooster St",
    "SubRegion": "New York",
    "TimeZone": { "Name": "America/New_York", "Offset": -18000 }
  },
  "{\"lat\":40.725095203432765,\"lng\":-73.99472459240812}": {
    "address": "298 Mulberry St, New York, NY 10012-3331, United States",
    "AddressNumber": "298",
    "Country": "USA",
    "Geometry": { "Point": [-73.99468, 40.7252] },
    "Interpolated": false,
    "Municipality": "New York",
    "Neighborhood": "Noho",
    "PostalCode": "10012-3331",
    "Region": "New York",
    "Street": "Mulberry St",
    "SubRegion": "New York",
    "TimeZone": { "Name": "America/New_York", "Offset": -18000 }
  },
  "{\"lat\":40.7250340769494,\"lng\":-74.00072519562079}": {
    "address": "115 Wooster St, New York, NY 10012-3808, United States",
    "AddressNumber": "115",
    "Country": "USA",
    "Geometry": { "Point": [-74.00058, 40.72497] },
    "Interpolated": false,
    "Municipality": "New York",
    "Neighborhood": "Soho",
    "PostalCode": "10012-3808",
    "Region": "New York",
    "Street": "Wooster St",
    "SubRegion": "New York",
    "TimeZone": { "Name": "America/New_York", "Offset": -18000 }
  },
  "{\"lat\":40.72145047352281,\"lng\":-73.99325351702596}": {
    "address": "213 Bowery, New York, NY 10002-2811, United States",
    "AddressNumber": "213",
    "Country": "USA",
    "Geometry": { "Point": [-73.99335, 40.72148] },
    "Interpolated": false,
    "Municipality": "New York",
    "Neighborhood": "Lower East Side",
    "PostalCode": "10002-2811",
    "Region": "New York",
    "Street": "Bowery",
    "SubRegion": "New York",
    "TimeZone": { "Name": "America/New_York", "Offset": -18000 }
  },
  "{\"lat\":40.72837623668289,\"lng\":-73.99886121000063}": {
    "address": "526 Laguardia Pl, New York, NY 10012-1401, United States",
    "AddressNumber": "526",
    "Country": "USA",
    "Geometry": { "Point": [-73.99881, 40.72846] },
    "Interpolated": false,
    "Municipality": "New York",
    "Neighborhood": "Greenwich Village",
    "PostalCode": "10012-1401",
    "Region": "New York",
    "Street": "Laguardia Pl",
    "SubRegion": "New York",
    "TimeZone": { "Name": "America/New_York", "Offset": -18000 }
  },
  "{\"lat\":40.730568107126885,\"lng\":-74.0015460911638}": {
    "address": "303 Avenue of the Americas, New York, NY 10014-4403, United States",
    "AddressNumber": "303",
    "Country": "USA",
    "Geometry": { "Point": [-74.00192, 40.73069] },
    "Interpolated": false,
    "Municipality": "New York",
    "Neighborhood": "West Village",
    "PostalCode": "10014-4403",
    "Region": "New York",
    "Street": "Avenue of the Americas",
    "SubRegion": "New York",
    "TimeZone": { "Name": "America/New_York", "Offset": -18000 }
  },
  "{\"lat\":40.731400855001155,\"lng\":-73.9911148604443}": {
    "address": "Hestia - Home, E 10th St, New York, NY 10003, United States",
    "Country": "USA",
    "Geometry": { "Point": [-73.99103, 40.73135] },
    "Interpolated": false,
    "Municipality": "New York",
    "Neighborhood": "Greenwich Village",
    "PostalCode": "10003",
    "Region": "New York",
    "Street": "E 10th St",
    "SubRegion": "New York",
    "TimeZone": { "Name": "America/New_York", "Offset": -18000 }
  },
  "{\"lat\":40.73218196534578,\"lng\":-73.99362931820473}": {
    "address": "35 E 9th St, New York, NY 10003-6303, United States",
    "AddressNumber": "35",
    "Country": "USA",
    "Geometry": { "Point": [-73.99366, 40.73202] },
    "Interpolated": false,
    "Municipality": "New York",
    "Neighborhood": "Greenwich Village",
    "PostalCode": "10003-6303",
    "Region": "New York",
    "Street": "E 9th St",
    "SubRegion": "New York",
    "TimeZone": { "Name": "America/New_York", "Offset": -18000 }
  },
  "{\"lat\":40.72133233711352,\"lng\":-74.0008060776982}": {
    "address": "40 Mercer St, New York, NY 10013-2616, United States",
    "AddressNumber": "40",
    "Country": "USA",
    "Geometry": { "Point": [-74.00092, 40.72124] },
    "Interpolated": false,
    "Municipality": "New York",
    "Neighborhood": "Soho",
    "PostalCode": "10013-2616",
    "Region": "New York",
    "Street": "Mercer St",
    "SubRegion": "New York",
    "TimeZone": { "Name": "America/New_York", "Offset": -18000 }
  },
  "{\"lat\":40.71828688416745,\"lng\":-73.99578698714632}": {
    "address": "90 Elizabeth St, New York, NY 10013-4728, United States",
    "AddressNumber": "90",
    "Country": "USA",
    "Geometry": { "Point": [-73.99582, 40.71828] },
    "Interpolated": false,
    "Municipality": "New York",
    "Neighborhood": "Chinatown",
    "PostalCode": "10013-4728",
    "Region": "New York",
    "Street": "Elizabeth St",
    "SubRegion": "New York",
    "TimeZone": { "Name": "America/New_York", "Offset": -18000 }
  },
  "{\"lat\":40.7220925406098,\"lng\":-73.99136084875148}": {
    "address": "Stanton St, New York, NY 10002, United States",
    "Country": "USA",
    "Geometry": { "Point": [-73.99126, 40.72228] },
    "Interpolated": false,
    "Municipality": "New York",
    "Neighborhood": "Lower East Side",
    "PostalCode": "10002",
    "Region": "New York",
    "Street": "Stanton St",
    "SubRegion": "New York",
    "TimeZone": { "Name": "America/New_York", "Offset": -18000 }
  },
  "{\"lat\":40.72581803753433,\"lng\":-73.98770831850315}": {
    "address": "324 E 5th St, New York, NY 10003-8801, United States",
    "AddressNumber": "324",
    "Country": "USA",
    "Geometry": { "Point": [-73.98779, 40.72589] },
    "Interpolated": false,
    "Municipality": "New York",
    "Neighborhood": "East Village",
    "PostalCode": "10003-8801",
    "Region": "New York",
    "Street": "E 5th St",
    "SubRegion": "New York",
    "TimeZone": { "Name": "America/New_York", "Offset": -18000 }
  },
  "{\"lat\":40.71840344097033,\"lng\":-73.99886493742503}": {
    "address": "200 Hester St, New York, NY 10013-3614, United States",
    "AddressNumber": "200",
    "Country": "USA",
    "Geometry": { "Point": [-73.99892, 40.71841] },
    "Interpolated": false,
    "Municipality": "New York",
    "Neighborhood": "Little Italy",
    "PostalCode": "10013-3614",
    "Region": "New York",
    "Street": "Hester St",
    "SubRegion": "New York",
    "TimeZone": { "Name": "America/New_York", "Offset": -18000 }
  },
  "{\"lat\":40.729092310780636,\"lng\":-73.99197906941276}": {
    "address": "ABC - Rug Repair & Restoration Noho, 432 Lafayette St, New York, NY 10003-6917, United States",
    "AddressNumber": "432",
    "Country": "USA",
    "Geometry": { "Point": [-73.99222, 40.72923] },
    "Interpolated": false,
    "Municipality": "New York",
    "Neighborhood": "Noho",
    "PostalCode": "10003-6917",
    "Region": "New York",
    "Street": "Lafayette St",
    "SubRegion": "New York",
    "TimeZone": { "Name": "America/New_York", "Offset": -18000 }
  },
  "{\"lat\":40.728577961579816,\"lng\":-74.00140074491}": {
    "address": "86 MacDougal St, New York, NY 10012-2505, United States",
    "AddressNumber": "86",
    "Country": "USA",
    "Geometry": { "Point": [-74.00152, 40.72862] },
    "Interpolated": false,
    "Municipality": "New York",
    "Neighborhood": "Greenwich Village",
    "PostalCode": "10012-2505",
    "Region": "New York",
    "Street": "MacDougal St",
    "SubRegion": "New York",
    "TimeZone": { "Name": "America/New_York", "Offset": -18000 }
  },
  "{\"lat\":40.720845442642634,\"lng\":-74.00402502092466}": {
    "address": "357 Canal St, New York, NY 10013-2216, United States",
    "AddressNumber": "357",
    "Country": "USA",
    "Geometry": { "Point": [-74.00392, 40.72105] },
    "Interpolated": false,
    "Municipality": "New York",
    "Neighborhood": "Soho",
    "PostalCode": "10013-2216",
    "Region": "New York",
    "Street": "Canal St",
    "SubRegion": "New York",
    "TimeZone": { "Name": "America/New_York", "Offset": -18000 }
  },
  "{\"lat\":40.73218322724039,\"lng\":-73.99364486277372}": {
    "address": "35 E 9th St, New York, NY 10003-6303, United States",
    "AddressNumber": "35",
    "Country": "USA",
    "Geometry": { "Point": [-73.99366, 40.73202] },
    "Interpolated": false,
    "Municipality": "New York",
    "Neighborhood": "Greenwich Village",
    "PostalCode": "10003-6303",
    "Region": "New York",
    "Street": "E 9th St",
    "SubRegion": "New York",
    "TimeZone": { "Name": "America/New_York", "Offset": -18000 }
  },
  "{\"lat\":40.72253591181744,\"lng\":-73.98986808805219}": {
    "address": "239 Eldridge St, New York, NY 10002-1349, United States",
    "AddressNumber": "239",
    "Country": "USA",
    "Geometry": { "Point": [-73.98983, 40.72255] },
    "Interpolated": false,
    "Municipality": "New York",
    "Neighborhood": "Lower East Side",
    "PostalCode": "10002-1349",
    "Region": "New York",
    "Street": "Eldridge St",
    "SubRegion": "New York",
    "TimeZone": { "Name": "America/New_York", "Offset": -18000 }
  },
  "{\"lat\":40.72213097757639,\"lng\":-73.99191678899713}": {
    "address": "199 Chrystie St, New York, NY 10002-1202, United States",
    "AddressNumber": "199",
    "Country": "USA",
    "Geometry": { "Point": [-73.99197, 40.72217] },
    "Interpolated": false,
    "Municipality": "New York",
    "Neighborhood": "Lower East Side",
    "PostalCode": "10002-1202",
    "Region": "New York",
    "Street": "Chrystie St",
    "SubRegion": "New York",
    "TimeZone": { "Name": "America/New_York", "Offset": -18000 }
  },
  "{\"lat\":40.72697553998494,\"lng\":-74.00028283987609}": {
    "address": "89 W Houston St, New York, NY 10012, United States",
    "AddressNumber": "89",
    "Country": "USA",
    "Geometry": { "Point": [-74.00022, 40.72687] },
    "Interpolated": false,
    "Municipality": "New York",
    "Neighborhood": "Soho",
    "PostalCode": "10012",
    "Region": "New York",
    "Street": "W Houston St",
    "SubRegion": "New York",
    "TimeZone": { "Name": "America/New_York", "Offset": -18000 }
  },
  "{\"lat\":40.73219830227011,\"lng\":-73.99558932481332}": {
    "address": "9 E 8th St, New York, NY 10003-5901, United States",
    "AddressNumber": "9",
    "Country": "USA",
    "Geometry": { "Point": [-73.99569, 40.73211] },
    "Interpolated": false,
    "Municipality": "New York",
    "Neighborhood": "Greenwich Village",
    "PostalCode": "10003-5901",
    "Region": "New York",
    "Street": "E 8th St",
    "SubRegion": "New York",
    "TimeZone": { "Name": "America/New_York", "Offset": -18000 }
  },
  "{\"lat\":40.724912701779324,\"lng\":-73.99900962097522}": {
    "address": "101 Prince St, New York, NY 10012-3218, United States",
    "AddressNumber": "101",
    "Country": "USA",
    "Geometry": { "Point": [-73.99895, 40.7249] },
    "Interpolated": false,
    "Municipality": "New York",
    "Neighborhood": "Soho",
    "PostalCode": "10012-3218",
    "Region": "New York",
    "Street": "Prince St",
    "SubRegion": "New York",
    "TimeZone": { "Name": "America/New_York", "Offset": -18000 }
  },
  "{\"lat\":40.73065691782933,\"lng\":-74.00181079994172}": {
    "address": "303 Avenue of the Americas, New York, NY 10014-4403, United States",
    "AddressNumber": "303",
    "Country": "USA",
    "Geometry": { "Point": [-74.00192, 40.73069] },
    "Interpolated": false,
    "Municipality": "New York",
    "Neighborhood": "West Village",
    "PostalCode": "10014-4403",
    "Region": "New York",
    "Street": "Avenue of the Americas",
    "SubRegion": "New York",
    "TimeZone": { "Name": "America/New_York", "Offset": -18000 }
  },
  "{\"lat\":40.729442564907096,\"lng\":-73.99603159407049}": {
    "address": "35 W 4th St, New York, NY 10012-1120, United States",
    "AddressNumber": "35",
    "Country": "USA",
    "Geometry": { "Point": [-73.99604, 40.72941] },
    "Interpolated": false,
    "Municipality": "New York",
    "Neighborhood": "Greenwich Village",
    "PostalCode": "10012-1120",
    "Region": "New York",
    "Street": "W 4th St",
    "SubRegion": "New York",
    "TimeZone": { "Name": "America/New_York", "Offset": -18000 }
  },
  "{\"lat\":40.72896432715197,\"lng\":-74.00127829393543}": {
    "address": "98 MacDougal St, New York, NY 10012-2505, United States",
    "AddressNumber": "98",
    "Country": "USA",
    "Geometry": { "Point": [-74.00128, 40.72891] },
    "Interpolated": false,
    "Municipality": "New York",
    "Neighborhood": "Greenwich Village",
    "PostalCode": "10012-2505",
    "Region": "New York",
    "Street": "MacDougal St",
    "SubRegion": "New York",
    "TimeZone": { "Name": "America/New_York", "Offset": -18000 }
  },
  "{\"lat\":40.727571382416826,\"lng\":-73.99365443280605}": {
    "address": "380 Lafayette St, New York, NY 10003-6672, United States",
    "AddressNumber": "380",
    "Country": "USA",
    "Geometry": { "Point": [-73.99365, 40.72755] },
    "Interpolated": false,
    "Municipality": "New York",
    "Neighborhood": "Noho",
    "PostalCode": "10003-6672",
    "Region": "New York",
    "Street": "Lafayette St",
    "SubRegion": "New York",
    "TimeZone": { "Name": "America/New_York", "Offset": -18000 }
  },
  "{\"lat\":40.72444138019928,\"lng\":-73.99045945941862}": {
    "address": "26 2nd Ave, New York, NY 10003-8607, United States",
    "AddressNumber": "26",
    "Country": "USA",
    "Geometry": { "Point": [-73.99044, 40.72451] },
    "Interpolated": false,
    "Municipality": "New York",
    "Neighborhood": "East Village",
    "PostalCode": "10003-8607",
    "Region": "New York",
    "Street": "2nd Ave",
    "SubRegion": "New York",
    "TimeZone": { "Name": "America/New_York", "Offset": -18000 }
  },
  "{\"lat\":40.729595159424605,\"lng\":-73.99964060455011}": {
    "address": "225 Sullivan St, New York, NY 10012-1301, United States",
    "AddressNumber": "225",
    "Country": "USA",
    "Geometry": { "Point": [-73.99962, 40.7296] },
    "Interpolated": false,
    "Municipality": "New York",
    "Neighborhood": "Greenwich Village",
    "PostalCode": "10012-1301",
    "Region": "New York",
    "Street": "Sullivan St",
    "SubRegion": "New York",
    "TimeZone": { "Name": "America/New_York", "Offset": -18000 }
  },
  "{\"lat\":40.718454942472285,\"lng\":-74.00011087909469}": {
    "address": "245 Canal St, New York, NY 10013-4115, United States",
    "AddressNumber": "245",
    "Country": "USA",
    "Geometry": { "Point": [-74.0001, 40.71849] },
    "Interpolated": false,
    "Municipality": "New York",
    "Neighborhood": "Chinatown",
    "PostalCode": "10013-4115",
    "Region": "New York",
    "Street": "Canal St",
    "SubRegion": "New York",
    "TimeZone": { "Name": "America/New_York", "Offset": -18000 }
  },
  "{\"lat\":40.72218348006752,\"lng\":-73.99992188433347}": {
    "address": "495 Broadway, New York, NY 10012-0053, United States",
    "AddressNumber": "495",
    "Country": "USA",
    "Geometry": { "Point": [-73.99978, 40.72211] },
    "Interpolated": false,
    "Municipality": "New York",
    "Neighborhood": "Soho",
    "PostalCode": "10012-0053",
    "Region": "New York",
    "Street": "Broadway",
    "SubRegion": "New York",
    "TimeZone": { "Name": "America/New_York", "Offset": -18000 }
  },
  "{\"lat\":40.72158900573517,\"lng\":-73.99387519804287}": {
    "address": "206 Bowery, New York, NY 10012-4203, United States",
    "AddressNumber": "206",
    "Country": "USA",
    "Geometry": { "Point": [-73.99379, 40.72156] },
    "Interpolated": false,
    "Municipality": "New York",
    "Neighborhood": "Nolita",
    "PostalCode": "10012-4203",
    "Region": "New York",
    "Street": "Bowery",
    "SubRegion": "New York",
    "TimeZone": { "Name": "America/New_York", "Offset": -18000 }
  },
  "{\"lat\":40.7267145444583,\"lng\":-74.00094978765162}": {
    "address": "140 Thompson St, New York, NY 10012-3109, United States",
    "AddressNumber": "140",
    "Country": "USA",
    "Geometry": { "Point": [-74.00104, 40.72666] },
    "Interpolated": false,
    "Municipality": "New York",
    "Neighborhood": "Soho",
    "PostalCode": "10012-3109",
    "Region": "New York",
    "Street": "Thompson St",
    "SubRegion": "New York",
    "TimeZone": { "Name": "America/New_York", "Offset": -18000 }
  },
  "{\"lat\":40.72558024924629,\"lng\":-74.00368219409043}": {
    "address": "207 Spring St, New York, NY 10012-3603, United States",
    "AddressNumber": "207",
    "Country": "USA",
    "Geometry": { "Point": [-74.00372, 40.72555] },
    "Interpolated": false,
    "Municipality": "New York",
    "Neighborhood": "Soho",
    "PostalCode": "10012-3603",
    "Region": "New York",
    "Street": "Spring St",
    "SubRegion": "New York",
    "TimeZone": { "Name": "America/New_York", "Offset": -18000 }
  },
  "{\"lat\":40.72106758091982,\"lng\":-73.99467778992675}": {
    "address": "176 Elizabeth St, New York, NY 10012-4600, United States",
    "AddressNumber": "176",
    "Country": "USA",
    "Geometry": { "Point": [-73.99466, 40.72112] },
    "Interpolated": false,
    "Municipality": "New York",
    "Neighborhood": "Nolita",
    "PostalCode": "10012-4600",
    "Region": "New York",
    "Street": "Elizabeth St",
    "SubRegion": "New York",
    "TimeZone": { "Name": "America/New_York", "Offset": -18000 }
  },
  "{\"lat\":40.7171376954155,\"lng\":-73.99868024987191}": {
    "address": "208 Canal St, New York, NY 10013-4519, United States",
    "AddressNumber": "208",
    "Country": "USA",
    "Geometry": { "Point": [-73.99877, 40.71701] },
    "Interpolated": false,
    "Municipality": "New York",
    "Neighborhood": "Chinatown",
    "PostalCode": "10013-4519",
    "Region": "New York",
    "Street": "Canal St",
    "SubRegion": "New York",
    "TimeZone": { "Name": "America/New_York", "Offset": -18000 }
  },
  "{\"lat\":40.72977924491288,\"lng\":-74.00148670303632}": {
    "address": "5 Minetta St, New York, NY 10012-1204, United States",
    "AddressNumber": "5",
    "Country": "USA",
    "Geometry": { "Point": [-74.00149, 40.7298] },
    "Interpolated": false,
    "Municipality": "New York",
    "Neighborhood": "Greenwich Village",
    "PostalCode": "10012-1204",
    "Region": "New York",
    "Street": "Minetta St",
    "SubRegion": "New York",
    "TimeZone": { "Name": "America/New_York", "Offset": -18000 }
  },
  "{\"lat\":40.727975930191356,\"lng\":-73.99572724404167}": {
    "address": "240 Mercer St, New York, NY 10012-1507, United States",
    "AddressNumber": "240",
    "Country": "USA",
    "Geometry": { "Point": [-73.99564, 40.72795] },
    "Interpolated": false,
    "Municipality": "New York",
    "Neighborhood": "Greenwich Village",
    "PostalCode": "10012-1507",
    "Region": "New York",
    "Street": "Mercer St",
    "SubRegion": "New York",
    "TimeZone": { "Name": "America/New_York", "Offset": -18000 }
  },
  "{\"lat\":40.721980226562415,\"lng\":-74.00235910924043}": {
    "address": "76 Grand St, New York, NY 10013-2220, United States",
    "AddressNumber": "76",
    "Country": "USA",
    "Geometry": { "Point": [-74.00255, 40.72203] },
    "Interpolated": false,
    "Municipality": "New York",
    "Neighborhood": "Soho",
    "PostalCode": "10013-2220",
    "Region": "New York",
    "Street": "Grand St",
    "SubRegion": "New York",
    "TimeZone": { "Name": "America/New_York", "Offset": -18000 }
  },
  "{\"lat\":40.71883698896232,\"lng\":-73.99615436501661}": {
    "address": "211 Grand St, New York, NY 10013-4223, United States",
    "AddressNumber": "211",
    "Country": "USA",
    "Geometry": { "Point": [-73.99616, 40.71881] },
    "Interpolated": false,
    "Municipality": "New York",
    "Neighborhood": "Chinatown",
    "PostalCode": "10013-4223",
    "Region": "New York",
    "Street": "Grand St",
    "SubRegion": "New York",
    "TimeZone": { "Name": "America/New_York", "Offset": -18000 }
  },
  "{\"lat\":40.730059122666226,\"lng\":-73.99658602873963}": {
    "address": "80 Washington Sq E, New York, NY 10003-6612, United States",
    "AddressNumber": "80",
    "Country": "USA",
    "Geometry": { "Point": [-73.99624, 40.73015] },
    "Interpolated": false,
    "Municipality": "New York",
    "Neighborhood": "Greenwich Village",
    "PostalCode": "10003-6612",
    "Region": "New York",
    "Street": "Washington Sq E",
    "SubRegion": "New York",
    "TimeZone": { "Name": "America/New_York", "Offset": -18000 }
  },
  "{\"lat\":40.72249771361404,\"lng\":-73.98834896848066}": {
    "address": "185 E Houston St, New York, NY 10002-1006, United States",
    "AddressNumber": "185",
    "Country": "USA",
    "Geometry": { "Point": [-73.98819, 40.72246] },
    "Interpolated": false,
    "Municipality": "New York",
    "Neighborhood": "Lower East Side",
    "PostalCode": "10002-1006",
    "Region": "New York",
    "Street": "E Houston St",
    "SubRegion": "New York",
    "TimeZone": { "Name": "America/New_York", "Offset": -18000 }
  },
  "{\"lat\":40.726335218209066,\"lng\":-73.99606709390282}": {
    "address": "639 Broadway, New York, NY 10012-2602, United States",
    "AddressNumber": "639",
    "Country": "USA",
    "Geometry": { "Point": [-73.99614, 40.72641] },
    "Interpolated": false,
    "Municipality": "New York",
    "Neighborhood": "Greenwich Village",
    "PostalCode": "10012-2602",
    "Region": "New York",
    "Street": "Broadway",
    "SubRegion": "New York",
    "TimeZone": { "Name": "America/New_York", "Offset": -18000 }
  },
  "{\"lat\":40.71708511220678,\"lng\":-73.9964375828691}": {
    "address": "54 Elizabeth St, New York, NY 10013-4605, United States",
    "AddressNumber": "54",
    "Country": "USA",
    "Geometry": { "Point": [-73.99649, 40.71716] },
    "Interpolated": false,
    "Municipality": "New York",
    "Neighborhood": "Chinatown",
    "PostalCode": "10013-4605",
    "Region": "New York",
    "Street": "Elizabeth St",
    "SubRegion": "New York",
    "TimeZone": { "Name": "America/New_York", "Offset": -18000 }
  },
  "{\"lat\":40.72059946288499,\"lng\":-73.99312915855482}": {
    "address": "159 Chrystie St, New York, NY 10002-2809, United States",
    "AddressNumber": "159",
    "Country": "USA",
    "Geometry": { "Point": [-73.99282, 40.7205] },
    "Interpolated": false,
    "Municipality": "New York",
    "Neighborhood": "Lower East Side",
    "PostalCode": "10002-2809",
    "Region": "New York",
    "Street": "Chrystie St",
    "SubRegion": "New York",
    "TimeZone": { "Name": "America/New_York", "Offset": -18000 }
  },
  "{\"lat\":40.72770610059244,\"lng\":-73.99807738659624}": {
    "address": "Washington Square Vlg, New York, NY 10012, United States",
    "Country": "USA",
    "Geometry": { "Point": [-73.9981, 40.72772] },
    "Interpolated": false,
    "Municipality": "New York",
    "Neighborhood": "Greenwich Village",
    "PostalCode": "10012",
    "Region": "New York",
    "Street": "Washington Square Vlg",
    "SubRegion": "New York",
    "TimeZone": { "Name": "America/New_York", "Offset": -18000 }
  },
  "{\"lat\":40.72377766184421,\"lng\":-73.99314779705249}": {
    "address": "276 Bowery, New York, NY 10012-3674, United States",
    "AddressNumber": "276",
    "Country": "USA",
    "Geometry": { "Point": [-73.99301, 40.7238] },
    "Interpolated": false,
    "Municipality": "New York",
    "Neighborhood": "Nolita",
    "PostalCode": "10012-3674",
    "Region": "New York",
    "Street": "Bowery",
    "SubRegion": "New York",
    "TimeZone": { "Name": "America/New_York", "Offset": -18000 }
  },
  "{\"lat\":40.72594846892358,\"lng\":-74.00174197606292}": {
    "address": "118 Thompson St, New York, NY 10012-3713, United States",
    "AddressNumber": "118",
    "Country": "USA",
    "Geometry": { "Point": [-74.00165, 40.72589] },
    "Interpolated": false,
    "Municipality": "New York",
    "Neighborhood": "Soho",
    "PostalCode": "10012-3713",
    "Region": "New York",
    "Street": "Thompson St",
    "SubRegion": "New York",
    "TimeZone": { "Name": "America/New_York", "Offset": -18000 }
  },
  "{\"lat\":40.720517199804135,\"lng\":-73.99542929899071}": {
    "address": "Kimika, 40 Kenmare St, New York, NY 10012, United States",
    "AddressNumber": "40",
    "Country": "USA",
    "Geometry": { "Point": [-73.99535, 40.72061] },
    "Interpolated": false,
    "Municipality": "New York",
    "Neighborhood": "Little Italy",
    "PostalCode": "10012",
    "Region": "New York",
    "Street": "Kenmare St",
    "SubRegion": "New York",
    "TimeZone": { "Name": "America/New_York", "Offset": -18000 }
  },
  "{\"lat\":40.7279249901477,\"lng\":-73.99919883034485}": {
    "address": "510 W Broadway, New York, NY 10012, United States",
    "AddressNumber": "510",
    "Country": "USA",
    "Geometry": { "Point": [-73.99924, 40.72795] },
    "Interpolated": false,
    "Municipality": "New York",
    "Neighborhood": "Greenwich Village",
    "PostalCode": "10012",
    "Region": "New York",
    "Street": "W Broadway",
    "SubRegion": "New York",
    "TimeZone": { "Name": "America/New_York", "Offset": -18000 }
  },
  "{\"lat\":40.72765249263351,\"lng\":-74.00191733125378}": {
    "address": "129 W Houston St, New York, NY 10012, United States",
    "AddressNumber": "129",
    "Country": "USA",
    "Geometry": { "Point": [-74.00197, 40.72763] },
    "Interpolated": false,
    "Municipality": "New York",
    "Neighborhood": "Soho",
    "PostalCode": "10012",
    "Region": "New York",
    "Street": "W Houston St",
    "SubRegion": "New York",
    "TimeZone": { "Name": "America/New_York", "Offset": -18000 }
  },
  "{\"lat\":40.73175695650139,\"lng\":-73.99690997145578}": {
    "address": "5th Ave, New York, NY 10003, United States",
    "Country": "USA",
    "Geometry": { "Point": [-73.99676, 40.7317] },
    "Interpolated": false,
    "Municipality": "New York",
    "Neighborhood": "Greenwich Village",
    "PostalCode": "10003",
    "Region": "New York",
    "Street": "5th Ave",
    "SubRegion": "New York",
    "TimeZone": { "Name": "America/New_York", "Offset": -18000 }
  },
  "{\"lat\":40.72836775849591,\"lng\":-74.00145516445306}": {
    "address": "80 MacDougal St, New York, NY 10012-2505, United States",
    "AddressNumber": "80",
    "Country": "USA",
    "Geometry": { "Point": [-74.00164, 40.72848] },
    "Interpolated": false,
    "Municipality": "New York",
    "Neighborhood": "Greenwich Village",
    "PostalCode": "10012-2505",
    "Region": "New York",
    "Street": "MacDougal St",
    "SubRegion": "New York",
    "TimeZone": { "Name": "America/New_York", "Offset": -18000 }
  },
  "{\"lat\":40.7272125732228,\"lng\":-73.99873164322895}": {
    "address": "501 Laguardia Pl, New York, NY 10012-1523, United States",
    "AddressNumber": "501",
    "Country": "USA",
    "Geometry": { "Point": [-73.999, 40.72717] },
    "Interpolated": false,
    "Municipality": "New York",
    "Neighborhood": "Greenwich Village",
    "PostalCode": "10012-1523",
    "Region": "New York",
    "Street": "Laguardia Pl",
    "SubRegion": "New York",
    "TimeZone": { "Name": "America/New_York", "Offset": -18000 }
  },
  "{\"lat\":40.72893692486693,\"lng\":-74.00008310212912}": {
    "address": "201 Sullivan St, New York, NY 10012-1301, United States",
    "AddressNumber": "201",
    "Country": "USA",
    "Geometry": { "Point": [-74.00019, 40.72894] },
    "Interpolated": false,
    "Municipality": "New York",
    "Neighborhood": "Greenwich Village",
    "PostalCode": "10012-1301",
    "Region": "New York",
    "Street": "Sullivan St",
    "SubRegion": "New York",
    "TimeZone": { "Name": "America/New_York", "Offset": -18000 }
  },
  "{\"lat\":40.71962610548298,\"lng\":-74.0030847872178}": {
    "address": "52 Lispenard St, New York, NY 10013-2506, United States",
    "AddressNumber": "52",
    "Country": "USA",
    "Geometry": { "Point": [-74.0031, 40.71958] },
    "Interpolated": false,
    "Municipality": "New York",
    "Neighborhood": "Tribeca",
    "PostalCode": "10013-2506",
    "Region": "New York",
    "Street": "Lispenard St",
    "SubRegion": "New York",
    "TimeZone": { "Name": "America/New_York", "Offset": -18000 }
  },
  "{\"lat\":40.718534047600265,\"lng\":-73.99290628945023}": {
    "address": "106 Forsyth St, New York, NY 10002-5102, United States",
    "AddressNumber": "106",
    "Country": "USA",
    "Geometry": { "Point": [-73.99266, 40.71849] },
    "Interpolated": false,
    "Municipality": "New York",
    "Neighborhood": "Lower East Side",
    "PostalCode": "10002-5102",
    "Region": "New York",
    "Street": "Forsyth St",
    "SubRegion": "New York",
    "TimeZone": { "Name": "America/New_York", "Offset": -18000 }
  },
  "{\"lat\":40.7214176746756,\"lng\":-74.00171181226882}": {
    "address": "100 Grand St, New York, NY 10013-2659, United States",
    "AddressNumber": "100",
    "Country": "USA",
    "Geometry": { "Point": [-74.00162, 40.72143] },
    "Interpolated": false,
    "Municipality": "New York",
    "Neighborhood": "Soho",
    "PostalCode": "10013-2659",
    "Region": "New York",
    "Street": "Grand St",
    "SubRegion": "New York",
    "TimeZone": { "Name": "America/New_York", "Offset": -18000 }
  },
  "{\"lat\":40.71960505602253,\"lng\":-73.99675053797986}": {
    "address": "164 Mulberry St, New York, NY 10013-3722, United States",
    "AddressNumber": "164",
    "Country": "USA",
    "Geometry": { "Point": [-73.99706, 40.71968] },
    "Interpolated": false,
    "Municipality": "New York",
    "Neighborhood": "Little Italy",
    "PostalCode": "10013-3722",
    "Region": "New York",
    "Street": "Mulberry St",
    "SubRegion": "New York",
    "TimeZone": { "Name": "America/New_York", "Offset": -18000 }
  },
  "{\"lat\":40.72031700189284,\"lng\":-73.99153833807219}": {
    "address": "150 Forsyth St, New York, NY 10002-2906, United States",
    "AddressNumber": "150",
    "Country": "USA",
    "Geometry": { "Point": [-73.99148, 40.72038] },
    "Interpolated": false,
    "Municipality": "New York",
    "Neighborhood": "Lower East Side",
    "PostalCode": "10002-2906",
    "Region": "New York",
    "Street": "Forsyth St",
    "SubRegion": "New York",
    "TimeZone": { "Name": "America/New_York", "Offset": -18000 }
  },
  "{\"lat\":40.723088484942984,\"lng\":-73.98907177305257}": {
    "address": "Frederic Sealey, 154 E Houston St, New York, NY 10002, United States",
    "AddressNumber": "154",
    "Country": "USA",
    "Geometry": { "Point": [-73.989, 40.72326] },
    "Interpolated": false,
    "Municipality": "New York",
    "Neighborhood": "East Village",
    "PostalCode": "10002",
    "Region": "New York",
    "Street": "E Houston St",
    "SubRegion": "New York",
    "TimeZone": { "Name": "America/New_York", "Offset": -18000 }
  },
  "{\"lat\":40.7232096947775,\"lng\":-73.99943787675787}": {
    "address": "96 Spring St, New York, NY 10012-3901, United States",
    "AddressNumber": "96",
    "Country": "USA",
    "Geometry": { "Point": [-73.99957, 40.72331] },
    "Interpolated": false,
    "Municipality": "New York",
    "Neighborhood": "Soho",
    "PostalCode": "10012-3901",
    "Region": "New York",
    "Street": "Spring St",
    "SubRegion": "New York",
    "TimeZone": { "Name": "America/New_York", "Offset": -18000 }
  },
  "{\"lat\":40.71911461635738,\"lng\":-74.00178256925054}": {
    "address": "276 Canal St, New York, NY 10013-3517, United States",
    "AddressNumber": "276",
    "Country": "USA",
    "Geometry": { "Point": [-74.00173, 40.71909] },
    "Interpolated": false,
    "Municipality": "New York",
    "Neighborhood": "Chinatown",
    "PostalCode": "10013-3517",
    "Region": "New York",
    "Street": "Canal St",
    "SubRegion": "New York",
    "TimeZone": { "Name": "America/New_York", "Offset": -18000 }
  },
  "{\"lat\":40.7235944309868,\"lng\":-73.98889218341466}": {
    "address": "68 E 1st St, New York, NY 10003-9317, United States",
    "AddressNumber": "68",
    "Country": "USA",
    "Geometry": { "Point": [-73.98891, 40.72358] },
    "Interpolated": false,
    "Municipality": "New York",
    "Neighborhood": "East Village",
    "PostalCode": "10003-9317",
    "Region": "New York",
    "Street": "E 1st St",
    "SubRegion": "New York",
    "TimeZone": { "Name": "America/New_York", "Offset": -18000 }
  },
  "{\"lat\":40.72564426490664,\"lng\":-73.99420099265922}": {
    "address": "46 Bleecker St, New York, NY 10012-2439, United States",
    "AddressNumber": "46",
    "Country": "USA",
    "Geometry": { "Point": [-73.99435, 40.72567] },
    "Interpolated": false,
    "Municipality": "New York",
    "Neighborhood": "Noho",
    "PostalCode": "10012-2439",
    "Region": "New York",
    "Street": "Bleecker St",
    "SubRegion": "New York",
    "TimeZone": { "Name": "America/New_York", "Offset": -18000 }
  },
  "{\"lat\":40.72228329027629,\"lng\":-73.99846904622378}": {
    "address": "62 Crosby St, New York, NY 10012-4410, United States",
    "AddressNumber": "62",
    "Country": "USA",
    "Geometry": { "Point": [-73.99841, 40.72229] },
    "Interpolated": false,
    "Municipality": "New York",
    "Neighborhood": "Soho",
    "PostalCode": "10012-4410",
    "Region": "New York",
    "Street": "Crosby St",
    "SubRegion": "New York",
    "TimeZone": { "Name": "America/New_York", "Offset": -18000 }
  },
  "{\"lat\":40.72302458793322,\"lng\":-73.99993328999174}": {
    "address": "Vince, 89 Mercer St, New York, NY 10012-4402, United States",
    "AddressNumber": "89",
    "Country": "USA",
    "Geometry": { "Point": [-74.00015, 40.72315] },
    "Interpolated": false,
    "Municipality": "New York",
    "Neighborhood": "Soho",
    "PostalCode": "10012-4402",
    "Region": "New York",
    "Street": "Mercer St",
    "SubRegion": "New York",
    "TimeZone": { "Name": "America/New_York", "Offset": -18000 }
  },
  "{\"lat\":40.72259903692552,\"lng\":-74.0037215217902}": {
    "address": "338 W Broadway, New York, NY 10013-2210, United States",
    "AddressNumber": "338",
    "Country": "USA",
    "Geometry": { "Point": [-74.00378, 40.72257] },
    "Interpolated": false,
    "Municipality": "New York",
    "Neighborhood": "Soho",
    "PostalCode": "10013-2210",
    "Region": "New York",
    "Street": "W Broadway",
    "SubRegion": "New York",
    "TimeZone": { "Name": "America/New_York", "Offset": -18000 }
  },
  "{\"lat\":40.71845783852005,\"lng\":-73.99895159462848}": {
    "address": "202 Hester St, New York, NY 10013-3614, United States",
    "AddressNumber": "202",
    "Country": "USA",
    "Geometry": { "Point": [-73.99901, 40.71844] },
    "Interpolated": false,
    "Municipality": "New York",
    "Neighborhood": "Little Italy",
    "PostalCode": "10013-3614",
    "Region": "New York",
    "Street": "Hester St",
    "SubRegion": "New York",
    "TimeZone": { "Name": "America/New_York", "Offset": -18000 }
  },
  "{\"lat\":40.720978760025645,\"lng\":-73.99365825651145}": {
    "address": "197 Bowery, New York, NY 10002-2811, United States",
    "AddressNumber": "197",
    "Country": "USA",
    "Geometry": { "Point": [-73.99356, 40.72095] },
    "Interpolated": false,
    "Municipality": "New York",
    "Neighborhood": "Lower East Side",
    "PostalCode": "10002-2811",
    "Region": "New York",
    "Street": "Bowery",
    "SubRegion": "New York",
    "TimeZone": { "Name": "America/New_York", "Offset": -18000 }
  },
  "{\"lat\":40.719388619254204,\"lng\":-73.99781566190457}": {
    "address": "181 Grand St, New York, NY 10013-3734, United States",
    "AddressNumber": "181",
    "Country": "USA",
    "Geometry": { "Point": [-73.99773, 40.71935] },
    "Interpolated": false,
    "Municipality": "New York",
    "Neighborhood": "Little Italy",
    "PostalCode": "10013-3734",
    "Region": "New York",
    "Street": "Grand St",
    "SubRegion": "New York",
    "TimeZone": { "Name": "America/New_York", "Offset": -18000 }
  },
  "{\"lat\":40.725174290583055,\"lng\":-73.99962916481972}": {
    "address": "113 Prince St, New York, NY 10012-3102, United States",
    "AddressNumber": "113",
    "Country": "USA",
    "Geometry": { "Point": [-73.99957, 40.72522] },
    "Interpolated": false,
    "Municipality": "New York",
    "Neighborhood": "Soho",
    "PostalCode": "10012-3102",
    "Region": "New York",
    "Street": "Prince St",
    "SubRegion": "New York",
    "TimeZone": { "Name": "America/New_York", "Offset": -18000 }
  },
  "{\"lat\":40.728643810818525,\"lng\":-74.00269909034928}": {
    "address": "USPS Collection Box - Blue Box, 241 Avenue of the Americas, New York, NY 10014-7500, United States",
    "AddressNumber": "241",
    "Country": "USA",
    "Geometry": { "Point": [-74.00289, 40.72869] },
    "Interpolated": false,
    "Municipality": "New York",
    "Neighborhood": "West Village",
    "PostalCode": "10014-7500",
    "Region": "New York",
    "Street": "Avenue of the Americas",
    "SubRegion": "New York",
    "TimeZone": { "Name": "America/New_York", "Offset": -18000 }
  },
  "{\"lat\":40.73157374092238,\"lng\":-73.99306057484507}": {
    "address": "55 E 9th St, New York, NY 10003-6300, United States",
    "AddressNumber": "55",
    "Country": "USA",
    "Geometry": { "Point": [-73.99284, 40.73168] },
    "Interpolated": false,
    "Municipality": "New York",
    "Neighborhood": "Greenwich Village",
    "PostalCode": "10003-6300",
    "Region": "New York",
    "Street": "E 9th St",
    "SubRegion": "New York",
    "TimeZone": { "Name": "America/New_York", "Offset": -18000 }
  },
  "{\"lat\":40.7252238646665,\"lng\":-74.00107611644488}": {
    "address": "Nancy Gallery, W Broadway, New York, NY 10012, United States",
    "Country": "USA",
    "Geometry": { "Point": [-74.00101, 40.7252] },
    "Interpolated": false,
    "Municipality": "New York",
    "Neighborhood": "Soho",
    "PostalCode": "10012",
    "Region": "New York",
    "Street": "W Broadway",
    "SubRegion": "New York",
    "TimeZone": { "Name": "America/New_York", "Offset": -18000 }
  },
  "{\"lat\":40.71866355693598,\"lng\":-74.0009096566852}": {
    "address": "262 Canal St, New York, NY 10013-3516, United States",
    "AddressNumber": "262",
    "Country": "USA",
    "Geometry": { "Point": [-74.00105, 40.7186] },
    "Interpolated": false,
    "Municipality": "New York",
    "Neighborhood": "Chinatown",
    "PostalCode": "10013-3516",
    "Region": "New York",
    "Street": "Canal St",
    "SubRegion": "New York",
    "TimeZone": { "Name": "America/New_York", "Offset": -18000 }
  },
  "{\"lat\":40.72117186741699,\"lng\":-73.9907678064142}": {
    "address": "Eldridge St Building 201, Eldridge St, New York, NY 10002, United States",
    "Country": "USA",
    "Geometry": { "Point": [-73.99064, 40.72119] },
    "Interpolated": false,
    "Municipality": "New York",
    "Neighborhood": "Lower East Side",
    "PostalCode": "10002",
    "Region": "New York",
    "Street": "Eldridge St",
    "SubRegion": "New York",
    "TimeZone": { "Name": "America/New_York", "Offset": -18000 }
  },
  "{\"lat\":40.72969275330313,\"lng\":-73.99930357395431}": {
    "address": "231 Sullivan St, New York, NY 10012-1301, United States",
    "AddressNumber": "231",
    "Country": "USA",
    "Geometry": { "Point": [-73.99949, 40.72976] },
    "Interpolated": false,
    "Municipality": "New York",
    "Neighborhood": "Greenwich Village",
    "PostalCode": "10012-1301",
    "Region": "New York",
    "Street": "Sullivan St",
    "SubRegion": "New York",
    "TimeZone": { "Name": "America/New_York", "Offset": -18000 }
  },
  "{\"lat\":40.728191193743186,\"lng\":-74.00457112859655}": {
    "address": "209 W Houston St, New York, NY 10014-4837, United States",
    "AddressNumber": "209",
    "Country": "USA",
    "Geometry": { "Point": [-74.00468, 40.72844] },
    "Interpolated": false,
    "Municipality": "New York",
    "Neighborhood": "Soho",
    "PostalCode": "10014-4837",
    "Region": "New York",
    "Street": "W Houston St",
    "SubRegion": "New York",
    "TimeZone": { "Name": "America/New_York", "Offset": -18000 }
  },
  "{\"lat\":40.72180895373262,\"lng\":-73.99072790174475}": {
    "address": "186 Forsyth St, New York, NY 10002-1316, United States",
    "AddressNumber": "186",
    "Country": "USA",
    "Geometry": { "Point": [-73.9908, 40.72173] },
    "Interpolated": false,
    "Municipality": "New York",
    "Neighborhood": "Lower East Side",
    "PostalCode": "10002-1316",
    "Region": "New York",
    "Street": "Forsyth St",
    "SubRegion": "New York",
    "TimeZone": { "Name": "America/New_York", "Offset": -18000 }
  },
  "{\"lat\":40.72935256078502,\"lng\":-73.99328906711771}": {
    "address": "726 Broadway, New York, NY 10003-9580, United States",
    "AddressNumber": "726",
    "Country": "USA",
    "Geometry": { "Point": [-73.99332, 40.72928] },
    "Interpolated": false,
    "Municipality": "New York",
    "Neighborhood": "Noho",
    "PostalCode": "10003-9580",
    "Region": "New York",
    "Street": "Broadway",
    "SubRegion": "New York",
    "TimeZone": { "Name": "America/New_York", "Offset": -18000 }
  },
  "{\"lat\":40.725451223254446,\"lng\":-74.0043080815621}": {
    "address": "221 Spring St, New York, NY 10013-1520, United States",
    "AddressNumber": "221",
    "Country": "USA",
    "Geometry": { "Point": [-74.00423, 40.72567] },
    "Interpolated": false,
    "Municipality": "New York",
    "Neighborhood": "Soho",
    "PostalCode": "10013-1520",
    "Region": "New York",
    "Street": "Spring St",
    "SubRegion": "New York",
    "TimeZone": { "Name": "America/New_York", "Offset": -18000 }
  },
  "{\"lat\":40.72872906854708,\"lng\":-73.99229508628504}": {
    "address": "419 Lafayette St, New York, NY 10003-7021, United States",
    "AddressNumber": "419",
    "Country": "USA",
    "Geometry": { "Point": [-73.99219, 40.72873] },
    "Interpolated": false,
    "Municipality": "New York",
    "Neighborhood": "Noho",
    "PostalCode": "10003-7021",
    "Region": "New York",
    "Street": "Lafayette St",
    "SubRegion": "New York",
    "TimeZone": { "Name": "America/New_York", "Offset": -18000 }
  },
  "{\"lat\":40.72726108858638,\"lng\":-73.99261973533015}": {
    "address": "28 E 4th St, New York, NY 10003-7004, United States",
    "AddressNumber": "28",
    "Country": "USA",
    "Geometry": { "Point": [-73.99253, 40.72734] },
    "Interpolated": false,
    "Municipality": "New York",
    "Neighborhood": "Noho",
    "PostalCode": "10003-7004",
    "Region": "New York",
    "Street": "E 4th St",
    "SubRegion": "New York",
    "TimeZone": { "Name": "America/New_York", "Offset": -18000 }
  },
  "{\"lat\":40.71965327037826,\"lng\":-73.98987131911389}": {
    "address": "124 Allen St, New York, NY 10002-3004, United States",
    "AddressNumber": "124",
    "Country": "USA",
    "Geometry": { "Point": [-73.98988, 40.71962] },
    "Interpolated": false,
    "Municipality": "New York",
    "Neighborhood": "Lower East Side",
    "PostalCode": "10002-3004",
    "Region": "New York",
    "Street": "Allen St",
    "SubRegion": "New York",
    "TimeZone": { "Name": "America/New_York", "Offset": -18000 }
  },
  "{\"lat\":40.72275812962212,\"lng\":-73.99436230203163}": {
    "address": "Cafe Habana, 17 Prince St, New York, NY 10012-3507, United States",
    "AddressNumber": "17",
    "Country": "USA",
    "Geometry": { "Point": [-73.99423, 40.72284] },
    "Interpolated": false,
    "Municipality": "New York",
    "Neighborhood": "Nolita",
    "PostalCode": "10012-3507",
    "Region": "New York",
    "Street": "Prince St",
    "SubRegion": "New York",
    "TimeZone": { "Name": "America/New_York", "Offset": -18000 }
  },
  "{\"lat\":40.72110473229443,\"lng\":-73.99890142812201}": {
    "address": "423 Broome St, New York, NY 10013-3202, United States",
    "AddressNumber": "423",
    "Country": "USA",
    "Geometry": { "Point": [-73.99883, 40.72122] },
    "Interpolated": false,
    "Municipality": "New York",
    "Neighborhood": "Chinatown",
    "PostalCode": "10013-3202",
    "Region": "New York",
    "Street": "Broome St",
    "SubRegion": "New York",
    "TimeZone": { "Name": "America/New_York", "Offset": -18000 }
  },
  "{\"lat\":40.72101126924749,\"lng\":-73.98936824130833}": {
    "address": "162 Allen St, New York, NY 10002-2106, United States",
    "AddressNumber": "162",
    "Country": "USA",
    "Geometry": { "Point": [-73.98915, 40.72098] },
    "Interpolated": false,
    "Municipality": "New York",
    "Neighborhood": "Lower East Side",
    "PostalCode": "10002-2106",
    "Region": "New York",
    "Street": "Allen St",
    "SubRegion": "New York",
    "TimeZone": { "Name": "America/New_York", "Offset": -18000 }
  },
  "{\"lat\":40.73159796480732,\"lng\":-73.99582935134531}": {
    "address": "58 Washington Mews, New York, NY 10003-6690, United States",
    "AddressNumber": "58",
    "Country": "USA",
    "Geometry": { "Point": [-73.99584, 40.73161] },
    "Interpolated": false,
    "Municipality": "New York",
    "Neighborhood": "Greenwich Village",
    "PostalCode": "10003-6690",
    "Region": "New York",
    "Street": "Washington Mews",
    "SubRegion": "New York",
    "TimeZone": { "Name": "America/New_York", "Offset": -18000 }
  },
  "{\"lat\":40.724200916728414,\"lng\":-74.00380261773232}": {
    "address": "63 Sullivan St, New York, NY 10012-4306, United States",
    "AddressNumber": "63",
    "Country": "USA",
    "Geometry": { "Point": [-74.00406, 40.72429] },
    "Interpolated": false,
    "Municipality": "New York",
    "Neighborhood": "Soho",
    "PostalCode": "10012-4306",
    "Region": "New York",
    "Street": "Sullivan St",
    "SubRegion": "New York",
    "TimeZone": { "Name": "America/New_York", "Offset": -18000 }
  },
  "{\"lat\":40.72529533318709,\"lng\":-73.989206044583}": {
    "address": "54 E 3rd St, New York, NY 10003-9209, United States",
    "AddressNumber": "54",
    "Country": "USA",
    "Geometry": { "Point": [-73.98928, 40.72523] },
    "Interpolated": false,
    "Municipality": "New York",
    "Neighborhood": "East Village",
    "PostalCode": "10003-9209",
    "Region": "New York",
    "Street": "E 3rd St",
    "SubRegion": "New York",
    "TimeZone": { "Name": "America/New_York", "Offset": -18000 }
  },
  "{\"lat\":40.725334559210566,\"lng\":-73.9973596852776}": {
    "address": "599-601 Broadway, New York, NY 10012, United States",
    "AddressNumber": "599-601",
    "Country": "USA",
    "Geometry": { "Point": [-73.9974, 40.7254] },
    "Interpolated": false,
    "Municipality": "New York",
    "Neighborhood": "Soho",
    "PostalCode": "10012",
    "Region": "New York",
    "Street": "Broadway",
    "SubRegion": "New York",
    "TimeZone": { "Name": "America/New_York", "Offset": -18000 }
  },
  "{\"lat\":40.731473920276706,\"lng\":-74.00148530772393}": {
    "address": "331 6th Ave, New York, NY 10014-4403, United States",
    "AddressNumber": "331",
    "Country": "USA",
    "Geometry": { "Point": [-74.00153, 40.73144] },
    "Interpolated": false,
    "Municipality": "New York",
    "Neighborhood": "West Village",
    "PostalCode": "10014-4403",
    "Region": "New York",
    "Street": "6th Ave",
    "SubRegion": "New York",
    "TimeZone": { "Name": "America/New_York", "Offset": -18000 }
  },
  "{\"lat\":40.72079801339733,\"lng\":-73.99243538114219}": {
    "address": "171 Chrystie St, New York, NY 10002-2809, United States",
    "AddressNumber": "171",
    "Country": "USA",
    "Geometry": { "Point": [-73.99264, 40.72086] },
    "Interpolated": false,
    "Municipality": "New York",
    "Neighborhood": "Lower East Side",
    "PostalCode": "10002-2809",
    "Region": "New York",
    "Street": "Chrystie St",
    "SubRegion": "New York",
    "TimeZone": { "Name": "America/New_York", "Offset": -18000 }
  },
  "{\"lat\":40.724480664831574,\"lng\":-74.0040158553144}": {
    "address": "67 Sullivan St, New York, NY 10012-4306, United States",
    "AddressNumber": "67",
    "Country": "USA",
    "Geometry": { "Point": [-74.00396, 40.72441] },
    "Interpolated": false,
    "Municipality": "New York",
    "Neighborhood": "Soho",
    "PostalCode": "10012-4306",
    "Region": "New York",
    "Street": "Sullivan St",
    "SubRegion": "New York",
    "TimeZone": { "Name": "America/New_York", "Offset": -18000 }
  },
  "{\"lat\":40.72960136182139,\"lng\":-73.99464730715563}": {
    "address": "7 Washington Pl, New York, NY 10003-6614, United States",
    "AddressNumber": "7",
    "Country": "USA",
    "Geometry": { "Point": [-73.99458, 40.72955] },
    "Interpolated": false,
    "Municipality": "New York",
    "Neighborhood": "Greenwich Village",
    "PostalCode": "10003-6614",
    "Region": "New York",
    "Street": "Washington Pl",
    "SubRegion": "New York",
    "TimeZone": { "Name": "America/New_York", "Offset": -18000 }
  },
  "{\"lat\":40.727724475653176,\"lng\":-73.99137733246802}": {
    "address": "18 Cooper Sq, New York, NY 10003-7110, United States",
    "AddressNumber": "18",
    "Country": "USA",
    "Geometry": { "Point": [-73.99154, 40.72782] },
    "Interpolated": false,
    "Municipality": "New York",
    "Neighborhood": "Noho",
    "PostalCode": "10003-7110",
    "Region": "New York",
    "Street": "Cooper Sq",
    "SubRegion": "New York",
    "TimeZone": { "Name": "America/New_York", "Offset": -18000 }
  },
  "{\"lat\":40.71702652345499,\"lng\":-73.99190090418685}": {
    "address": "55 Allen St, New York, NY 10002-5303, United States",
    "AddressNumber": "55",
    "Country": "USA",
    "Geometry": { "Point": [-73.99195, 40.71699] },
    "Interpolated": false,
    "Municipality": "New York",
    "Neighborhood": "Chinatown",
    "PostalCode": "10002-5303",
    "Region": "New York",
    "Street": "Allen St",
    "SubRegion": "New York",
    "TimeZone": { "Name": "America/New_York", "Offset": -18000 }
  },
  "{\"lat\":40.718954853862904,\"lng\":-74.00223690885005}": {
    "address": "407 Broadway, New York, NY 10013-3502, United States",
    "AddressNumber": "407",
    "Country": "USA",
    "Geometry": { "Point": [-74.00242, 40.71899] },
    "Interpolated": false,
    "Municipality": "New York",
    "Neighborhood": "Tribeca",
    "PostalCode": "10013-3502",
    "Region": "New York",
    "Street": "Broadway",
    "SubRegion": "New York",
    "TimeZone": { "Name": "America/New_York", "Offset": -18000 }
  },
  "{\"lat\":40.727611833788686,\"lng\":-73.99221646025526}": {
    "address": "35 E 4th St, New York, NY 10003-7003, United States",
    "AddressNumber": "35",
    "Country": "USA",
    "Geometry": { "Point": [-73.99226, 40.7276] },
    "Interpolated": false,
    "Municipality": "New York",
    "Neighborhood": "Noho",
    "PostalCode": "10003-7003",
    "Region": "New York",
    "Street": "E 4th St",
    "SubRegion": "New York",
    "TimeZone": { "Name": "America/New_York", "Offset": -18000 }
  },
  "{\"lat\":40.72418311593095,\"lng\":-73.99907801814341}": {
    "address": "123 Mercer St, New York, NY 10012-3805, United States",
    "AddressNumber": "123",
    "Country": "USA",
    "Geometry": { "Point": [-73.99907, 40.72418] },
    "Interpolated": false,
    "Municipality": "New York",
    "Neighborhood": "Soho",
    "PostalCode": "10012-3805",
    "Region": "New York",
    "Street": "Mercer St",
    "SubRegion": "New York",
    "TimeZone": { "Name": "America/New_York", "Offset": -18000 }
  },
  "{\"lat\":40.72685552049006,\"lng\":-73.98973117340037}": {
    "address": "236 E 5th St, New York, NY 10003-8501, United States",
    "AddressNumber": "236",
    "Country": "USA",
    "Geometry": { "Point": [-73.98968, 40.72699] },
    "Interpolated": false,
    "Municipality": "New York",
    "Neighborhood": "East Village",
    "PostalCode": "10003-8501",
    "Region": "New York",
    "Street": "E 5th St",
    "SubRegion": "New York",
    "TimeZone": { "Name": "America/New_York", "Offset": -18000 }
  },
  "{\"lat\":40.72597269190902,\"lng\":-73.98900595583}": {
    "address": "88 E 4th St, New York, NY 10003-9001, United States",
    "AddressNumber": "88",
    "Country": "USA",
    "Geometry": { "Point": [-73.98899, 40.72589] },
    "Interpolated": false,
    "Municipality": "New York",
    "Neighborhood": "East Village",
    "PostalCode": "10003-9001",
    "Region": "New York",
    "Street": "E 4th St",
    "SubRegion": "New York",
    "TimeZone": { "Name": "America/New_York", "Offset": -18000 }
  },
  "{\"lat\":40.71611480718351,\"lng\":-73.99580527079821}": {
    "address": "Manhattan Brg, New York, NY 10002, United States",
    "Country": "USA",
    "Geometry": { "Point": [-73.99577, 40.71615] },
    "Interpolated": false,
    "Municipality": "New York",
    "Neighborhood": "Chinatown",
    "PostalCode": "10002",
    "Region": "New York",
    "Street": "Manhattan Brg",
    "SubRegion": "New York",
    "TimeZone": { "Name": "America/New_York", "Offset": -18000 }
  }
}
